"name","lat","lng","address","detail_info"
"全家便利店(中春路二店)",31.147776,121.352183,"七宝镇中春路7228号第3幢1层","购物;便利店"
"喜士多",31.141472,121.367605,"上海市闵行区七莘路1855号丽婴房大楼第七幢B1楼106室","购物;便利店"
"全家便利店(七莘路二店)",31.155499,121.358826,"七莘路2827号(近富强街)","购物;便利店"
"快客便利店(no.5340)",31.139529,121.356084,"中春路6785号华贸商务101室","购物;便利店"
"快客便利店(no.6386)",31.150892,121.363786,"七莘路3599弄5号149室","购物;便利店"
"罗森便利店(万兆家园店)",31.155339,121.357456,"七莘路2855弄53号101-102室","购物;便利店"
"快客便利店(no.6800)",31.143111,121.364109,"华友路188号(华林路)","购物;便利店"
"快客便利店(no.5371)",31.146357,121.364522,"中谊路769号-2号(华友大厦西北)","购物;便利店"
"快客便利店(宝铭路)",31.145044,121.373874,"宝铭路82号","购物;便利店"
"易捷便利店(黎安新村西北)",31.135455,121.37311,"闵行区七莘路1338号(黎安新村西北)","购物;便利店"
"宜佳便利(华友路店)",31.143684,121.365635,"上海市闵行区华友路128号","购物;便利店"
"联华快客(敬老店)",31.1441,121.358279,"中谊路955号1号楼","购物;便利店"
"好德(联明店)",31.152171,121.355227,"闵行七莘路2465弄1号101","购物;便利店"
"快客便利店(no.5266)",31.149538,121.371071,"中谊路371号(新镇路)","购物;便利店"
"快客便利店(no.5447)",31.146646,121.352766,"中春路7198号A栋1层1号(联明雅苑东北)","购物;便利店"
"文君",31.155597,121.357566,"七莘路2855弄147号104(近罗森超市)","购物;便利店"
"三士便利店",31.140387,121.370228,"七莘路1664号闵行区基督教七宝耶稣堂附近","购物;便利店"
"海琪便利店",31.142756,121.366741,"七莘路1865号上海海琪汽车用品商城A裙-38","购物;便利店"
"快客便利店(no.5438)",31.152031,121.361146,"宝联路15号A-21室","购物;便利店"
"快客便利店(no.5096)",31.156241,121.363292,"宝南路518","购物;便利店"
"良友金伴(闵行七莘店)",31.15621,121.357545,"七莘路2855弄万兆家园73号73号6室","购物;便利店"
"快客便利店(no.6309)",31.154843,121.3699,"新镇路876弄62临","购物;便利店"
"爱家便利店",31.145925,121.361044,"七宝镇中谊路814号","购物;便利店"
"好好便利店",31.153337,121.358038,"联明路90号","购物;便利店"
"欢购便利店",31.14822,121.364033,"七莘路2299弄39号","购物;便利店"
"观音便利店",31.133834,121.374155,"七莘路黎安路673号","购物;便利店"
"伟伟便利店(普利路)",31.132108,121.371854,"普利路7号附近","购物;便利店"
"易购便利店",31.145277,121.353406,"上海市闵行区","购物;便利店"
"快客便利店(no.6223)",31.153994,121.371256,"农南路128","购物;便利店"
"七宝叠彩便利店",31.155712,121.357304,"七莘路2855弄28号105室","购物;便利店"
"顶优鱿海珍坊",31.155783,121.359364,"七宝老街(漕宝路吴宝路)","购物;便利店"
"莘闵食品经营部七宝分部",31.151635,121.363155,"七莘路2630-2632号","购物;便利店"
"顺发便利店(宝南路)",31.155372,121.361857,"宝南西路27号(近宝南路)","购物;便利店"
"徽韵便利店",31.147388,121.371284,"荣谊路134号","购物;便利店"
"斐斐便利店",31.152386,121.35557,"联明路226号","购物;便利店"
"馨馨百货便利店",31.147398,121.366515,"中谊路553号629号","购物;便利店"
"黎明便利店",31.153243,121.355106,"上海市闵行区","购物;便利店"
"七宝芳芳杂货店",31.148508,121.364144,"七莘路2299弄-30号-102","购物"
"七宝宝仪杂货店",31.155097,121.370442,"新镇路876弄84临","购物"
"联合一百超市",31.144973,121.362831,"七宝镇华林路252号","购物"
"进口商品直销店",31.15102,121.354006,"联明路与联盛路交叉口东南50米","购物"
"富强饮料店",31.155769,121.359429,"七宝镇富强街107号","购物"
"七宝建强日用百货经营部",31.153675,121.370565,"农南路164临","购物"
"全家便利店(七莘路店)",31.16188,121.354124,"闵行区七莘路3017号(近漕宝路)","购物;便利店"
"全家便利店(宝镇店)",31.160244,121.360529,"闵行区七宝镇青年路199-201号一楼(民主路青年路)","购物;便利店"
"罗森便利店(七宝店)",31.156428,121.358069,"七莘路2855弄万兆家园内","购物;便利店"
"全家便利店(航新路店)",31.176478,121.353942,"航新路160号(近航北路)","购物;便利店"
"全家便利店(沪松公路二店)",31.15876,121.351534,"沪松公路193号(近七莘路)","购物;便利店"
"良友(七宝店)",31.15859,121.357025,"青年路397","购物;便利店"
"好德便利(吴宝店)",31.164515,121.355972,"吴宝路141号","购物;便利店"
"可的便利店(青年店)",31.159053,121.357734,"上海市闵行区青年路373号(民主路青年路)","购物;便利店"
"中化道达尔-便利店",31.164233,121.36915,"漕宝路1999号","购物;便利店"
"好德便利(佳宝店)",31.161147,121.352165,"七莘路3035号七宝商城内(近漕宝路)","购物;便利店"
"好德便利店(七莘店)",31.1574,121.36048,"上海市闵行区七莘路2938弄34号","购物;便利店"
"易捷便利店(七宝店)",31.167453,121.354999,"吴宝路298号(近吴中路)","购物;便利店"
"快客便利店(七莘店)",31.165287,121.350987,"七莘路3333号万科城市花园3区2号101室","购物;便利店"
"小兔子音响店",31.160174,121.353035,"沪松公路70-1临","购物;便利店"
"君飞便民店",31.179242,121.371358,"紫藤路龙柏六村88号01号","购物;便利店"
"好德便利(青年店)",31.16171,121.364373,"上海市闵行区青年路3临","购物;便利店"
"七宝七莘商行",31.170551,121.352974,"新龙村观音堂33号附近","购物;便利店"
"全家便利店(紫藤路站店)",31.176064,121.371767,"轨道交通十号线紫藤路站-10-101号(近吴中路)","购物;便利店"
"快客便利店",31.161733,121.35782,"上海市闵行区民主路82号","购物;便利店"
"快客便利店(新龙店)",31.164117,121.355876,"新龙路605号","购物;便利店"
"全家便利店(航北店)",31.177537,121.357352,"航北路468号(航北路航中路)","购物;便利店"
"天虹百货店",31.163569,121.362646,"漕宝路3223号附近","购物;便利店"
"快客(no.006291)",31.163431,121.366119,"漕宝路3009～3011号","购物;便利店"
"好德便利店(航东店)",31.176964,121.363789,"航东路194-196号","购物;便利店"
"光明乳业(特价店)",31.180662,121.361374,"航东路417号","购物;便利店"
"迪亚天天(航东店)",31.181184,121.361047,"航华一村309-310号底层","购物;便利店"
"好德便利(富泰店)",31.177478,121.353697,"航新路369-398(航北路航新路)","购物;便利店"
"快客便利店(闵行区卫生局卫生监督所七宝分所东北)",31.157462,121.360012,"闵行区闵行区南街(闵行区卫生局卫生监督所七宝分所东北)","购物;便利店"
"良友金伴便利店",31.161205,121.363158,"上海市闵行区青年路83~85号","购物;便利店"
"罗森便利店",31.179905,121.362821,"航北路与航东路交叉口旁","购物;便利店"
"迪亚天天(航中店)",31.173361,121.361515,"闵行区航中路93号","购物;便利店"
"喜士多便利店(紫藤路店)",31.176465,121.371757,"虹桥镇紫藤路3号","购物;便利店"
"光明便利店",31.16792,121.353017,"七宝镇金球花园","购物;便利店"
"福彩便利店",31.158653,121.364293,"富强东街与富强街交叉口西","购物;便利店"
"好德便利店(七宝店)",31.15999,121.360346,"上海市闵行区青年路208号","购物;便利店"
"好德便利(航中店)",31.177558,121.357908,"航北路373-375号","购物;便利店"
"好德便利店(航新店)",31.176501,121.354521,"航北路698号(航北路航新路)","购物;便利店"
"兴隆杂货店(吴中路)",31.172715,121.363414,"吴中路","购物;便利店"
"良友金伴(闵行航新店)",31.180052,121.352954,"航新路600号","购物;便利店"
"好邻居便利店",31.168905,121.353276,"上海市闵行区吴宝路415号","购物;便利店"
"快客便利店(青年路)",31.160517,121.361297,"七宝镇青年路143号","购物;便利店"
"罗森(万科店)",31.165318,121.350957,"七莘路3333号万科城市花园3区2号楼101室","购物;便利店"
"天天便利",31.16195,121.353537,"七莘路3021号(七宝镇人民政府司法办公室北)","购物;便利店"
"快客便利店(no.6723)",31.163299,121.368811,"漕宝路3009-3011号","购物;便利店"
"好德(航北路店)",31.17864,121.36047,"航北路与航中路交叉口西(航北路航中路)","购物;便利店"
"上海市小虹烟杂店",31.180991,121.370664,"紫藤路288号-2室","购物;便利店"
"其银日用百货商店",31.163446,121.362314,"漕宝路3223号附近","购物;便利店"
"巧巧便利店",31.171149,121.357316,"航新路49号","购物;便利店"
"七宝伯兴粮油商店",31.158545,121.356913,"上海市闵行区青年路403-3临","购物;商铺"
"益家便利店",31.179541,121.371286,"紫藤路168弄7号","购物;便利店"
"好德便利店",31.180522,121.365095,"航北路40号(近鸿禧花园)","购物;便利店"
"好德便利(紫藤店)",31.180735,121.37074,"闵行区紫藤路278号（青杉路紫藤路）","购物;便利店"
"先慧便利店",31.17233,121.354925,"航南路634临","购物;便利店"
"快客便利店(no.5411)",31.179866,121.370945,"上海市闵行区紫藤路238号-118室","购物;便利店"
"新华杂货店(号上路)",31.172879,121.365027,"号上路3号附近","购物;便利店"
"光明便利(航南店)",31.175898,121.364416,"航南路177号(航东路航南路)","购物;便利店"
"七宝永兴便利店",31.160666,121.35275,"七宝商业街A-27号附近","购物;便利店"
"快客便利店(富强店)",31.160241,121.366795,"富强街28-17号","购物;便利店"
"迪亚天天(航北店)",31.177001,121.356651,"航北路585号","购物;便利店"
"大王炒货批发部",31.162703,121.368332,"宝盛路与富强路交叉口西北200米","购物;便利店"
"惠惠杂货店(明泉花园东北)",31.164589,121.361541,"新镇路1481号附近","购物;便利店"
"快客便利店",31.171666,121.357379,"上海市闵行区","购物;便利店"
"芯芯综合商店",31.17534,121.355084,"航新路华氏大药房旁","购物;便利店"
"联欢综合商店",31.167743,121.352593,"吴中路2739号","购物;便利店"
"蒋伟便利店",31.178198,121.374757,"老虹井路与白樟路交叉口南","购物;便利店"
"吉利便利店",31.158729,121.362035,"横沥路与南西街交叉口北","购物;便利店"
"正阳烟杂店",31.16046,121.353643,"沪松公路56号","购物;便利店"
"品鲜居便利店",31.162401,121.370843,"星富街5幢4号","购物;便利店"
"华景百货店",31.180338,121.365603,"七宝镇航北路31号","购物;便利店"
"兆平百货批发部",31.163598,121.362233,"漕宝路3223号附近","购物;便利店"
"航古店",31.176521,121.360062,"航中路284","购物;便利店"
"萍萍杂货店",31.164025,121.361856,"漕宝路3223号附近","购物;便利店"
"七宝东海烟糖杂货门市部",31.161731,121.36377,"青年路50临","购物;便利店"
"七宝中心烟糖商店",31.157863,121.361493,"上海市闵行区七宝镇南大街21临","购物;便利店"
"光明便利(航新路)",31.176838,121.354149,"航新路372号(航北路航新路)","购物;便利店"
"昌建烟酒店",31.15885,121.35159,"沪松公路191","购物;便利店"
"科迪农家超市",31.156564,121.361079,"七宝镇七宝南街93号","购物;便利店"
"屋里厢",31.158057,121.361123,"七宝古镇南大街4号","购物;便利店"
"李云杂货店",31.163606,121.362628,"漕宝路3223号附近","购物;便利店"
"先进百货部",31.163872,121.362539,"漕宝路3223号附近","购物;便利店"
"中宝便利店",31.168247,121.354221,"吴宝路与吴中路交叉口旁","购物;便利店"
"七宝小太阳商店",31.162835,121.35117,"七莘路3333号万科城市花园6区","购物;便利店"
"便利店茶",31.159229,121.35877,"民主路与青年路交叉口南50米","购物;便利店"
"七宝镇伟高百货店",31.159013,121.364355,"上海市闵行区富强东街15号","购物;便利店"
"伟强便利店",31.179729,121.357817,"航中路381号","购物;便利店"
"缘缘便利",31.157527,121.360806,"上海市闵行区","购物;便利店"
"老街便利店",31.15682,121.362217,"镇企路便民水产旁","购物;便利店"
"欧宝吉商行",31.160225,121.352809,"沪松公路七十二弄4","购物;便利店"
"龙柏光明综合便利店",31.174752,121.355487,"航新路274号","购物;便利店"
"锦虹便利店",31.175628,121.362731,"航东路与航南路交叉口","购物;便利店"
"七宝惠民日夜门市部",31.158069,121.361178,"上海市闵行区七宝镇南大街12临","购物;便利店"
"七宝镇佳亭商行",31.160828,121.352085,"佳宝三村1号101室1","购物;便利店"
"喜土多便利店",31.176304,121.371828,"虹桥镇紫藤路3号","购物;便利店"
"宝裕商行",31.160472,121.360446,"上海市闵行区青年路190号","购物;超市"
"闵宝小五金杂货店",31.160673,121.360365,"上海市闵行区","购物"
"龙柏为民杂货店",31.179851,121.357768,"航中路393号","购物"
"杜康食品经营部",31.170327,121.351238,"七莘路与星站路交叉口东侧","购物"
"纯享进口食品超市",31.157941,121.361977,"上海市闵行区宝南路536弄98号96室","购物"
"鸿兴日用百货店",31.170525,121.352703,"吴宝路64号","购物"
"厨房日用百货",31.162033,121.352305,"上海市闵行区","购物"
"七宝镇锦石综合商店",31.169799,121.353045,"七宝镇吴宝路428号台尚食品有限公司马路对面","购物"
"龙柏隆东百货商行",31.175655,121.354883,"航新路310号","购物"
"快客便利店(no.5099)",31.189062,121.363167,"沪青平公路58号101室","购物;便利店"
"全家便利店(虹井路店)",31.194531,121.374279,"虹井路890号","购物;便利店"
"全家便利店(虹桥店)",31.197699,121.353356,"轨道交通十号线虹桥机场东站-10-101号","购物;便利店"
"全家便利店(沪青平公路NO.4)",31.186889,121.358956,"沪青平公路173-175号1楼(航东路路口)","购物;便利店"
"全家便利店(沪青平店)",31.184006,121.354223,"沪青平公路317号B座","购物;便利店"
"罗森便利店(虹桥机场店)",31.199982,121.353077,"迎宾一路800号虹桥机场一号候机楼","购物;便利店"
"快客便利店(嘉富丽苑店)",31.188947,121.367123,"外环沪青平立交桥G50G318(汉庭酒店)","购物;便利店"
"全家便利店(航东路店)",31.182303,121.360885,"航东路548号","购物;便利店"
"美清便利店",31.195777,121.374265,"虹桥路2374-3号临","购物;便利店"
"好德(桦井店)",31.190796,121.374181,"黄桦路564号","购物;便利店"
"易捷便利店(迎宾三路)",31.191523,121.35501,"迎宾三路253号","购物;便利店"
"好德(虹井店)",31.194747,121.374284,"长宁虹井路900号","购物;便利店"
"加油站-便利店",31.198008,121.358592,"迎宾一路369","购物;便利店"
"全家便利店(红松路二店)",31.186558,121.37186,"红松路518号","购物;便利店"
"全家便利店(青杉店)",31.181946,121.371787,"青杉路319号1层02室","购物;便利店"
"喜仕多便利店",31.184918,121.355451,"上海市闵行区","购物;便利店"
"迪亚天天(青杉店)",31.181551,121.370567,"上海市闵行区青杉路369号-3楼","购物;便利店"
"上海市闵行区龙柏街道旭欣综合店",31.182666,121.362635,"航东路528弄81号","购物;便利店"
"西鼎便利店",31.190908,121.361264,"迎宾三路88号（三号房）","购物;便利店"
"好德便利(青杉店)",31.182323,121.375219,"闵行龙柏五村9号(虹井路先锋街)","购物;便利店"
"超雅烟酒便利店",31.200872,121.355286,"迎宾一路588号丙2(西2)","购物;便利店"
"快客便利店(青杉路店)",31.182516,121.372473,"上海市青杉路154-2号(龙柏四季花园西)","购物;便利店"
"好德便利(NO.032店)",31.185966,121.369602,"黄桦路266号(红松路黄桦路)","购物;便利店"
"好德便利(青藤店)",31.181688,121.370705,"上海闵行区青杉路369-2临","购物;便利店"
"快客便利店(no.1570)",31.182131,121.362117,"航东路528弄38号","购物;便利店"
"可的便利店(黄桦店)",31.187306,121.371008,"黄桦路284号(红松路黄桦路)","购物;便利店"
"喜乐多便利店",31.18512,121.355699,"虹桥沪青平公路279号","购物;便利店"
"易捷便利店(NO.950)",31.193587,121.375027,"长宁区虹井路840号","购物;便利店"
"罗森(虹莘路店)",31.182931,121.366087,"虹泉路1101弄15-16号","购物;便利店"
"快客便利店(虹井店)",31.194636,121.374334,"虹井路894号底层","购物;便利店"
"航缘食品店",31.190089,121.354717,"空港六路1号67号","购物;便利店"
"光明便利(航东店)",31.18248,121.362119,"闵行区七宝镇航东路528弄53号","购物;便利店"
"花玉兰烟杂店",31.199941,121.375853,"哈密路1910临","购物;便利店"
"优品便利(虹桥机场店)",31.192643,121.35502,"空港一路89号105室","购物;便利店"
"HubConvenience便利店",31.200785,121.352702,"1号航站楼国内出发禁区","购物;便利店"
"龙柏街道综合商店",31.18608,121.371409,"上海市闵行区红松路528号","购物;便利店"
"维也家便利店",31.182427,121.352062,"新虹街道沪青平公路397-433单号第4幢一层2室","购物;便利店"
"上海动物园小卖部",31.197542,121.374018,"上海市长宁区虹桥路2381号(近虹井路)上海动物园内","购物;便利店"
"珊瑚亭",31.202415,121.368926,"上海市长宁区虹桥路2381号(近虹井路)上海动物园内","购物;便利店"
"小卖部",31.197048,121.368458,"上海市长宁区虹桥路2381号(近虹井路)上海动物园内","购物;便利店"
"桂花亭",31.196592,121.372618,"上海市长宁区虹桥路2381号(近虹井路)上海动物园内","购物;便利店"
"全友便利店",31.188916,121.367064,"黄桦路369弄9号","购物;便利店"
"仙鹤亭",31.201078,121.370447,"上海市长宁区虹桥路2381号(近虹井路)上海动物园内","购物;便利店"
"华龙便利店",31.193373,121.358257,"迎宾二路117附近","购物;便利店"
"西郊加油加气站-便利店",31.189946,121.368139,"延安西路3508","购物;便利店"
"华漕惠利食品商店",31.182046,121.360641,"航东路499号","购物;便利店"
"猪耳朵摊头",31.185904,121.359186,"航东路沪江园区门口(近沪青平公路)","购物;便利店"
"振泰食品经销部(机场销售一部店)",31.190626,121.357759,"迎宾三路(近机场销售一部)","购物;便利店"
"桂玉百货・韩国食品店",31.190879,121.373188,"黄桦路399号(绿苑路)","购物;便利店"
"月季亭",31.199327,121.365978,"上海市长宁区虹桥路2381号(近虹井路)上海动物园内","购物;便利店"
"谢秀综合商店",31.187903,121.370537,"黄桦路341号","购物;便利店"
"哈哈便利店",31.182876,121.360315,"航东路休闲浴场旁","购物;便利店"
"闵行区航华永兴便民商店",31.18439,121.356466,"航中路702号","购物;便利店"
"上海市长宁区一郎食品店",31.204067,121.36778,"金浜路107-127号","购物"
"航友宾馆-商场",31.198929,121.357498,"迎宾一路425号航友宾馆1层","购物"
"长宁西郊食品商店",31.195542,121.373507,"虹桥路与虹井路交叉口旁","购物"
"航华鼎盛综合商店",31.181593,121.360873,"航东路477号","购物"
"全家便利店(协和路店)",31.222698,121.362619,"协和路780-1","购物;便利店"
"711便利店(淞虹路店)",31.225037,121.367507,"天山西路568号2幢统一企业大厦内(近淞虹路)","购物;便利店"
"全家便利店(福泉路店)",31.212006,121.366084,"福泉路315号101室(近仙霞西路)","购物;便利店"
"上海市长宁区珊梅杂货店",31.218729,121.368109,"上海市长宁区淞虹路614号","购物;便利店"
"全家便利店(金钟路店)",31.22608,121.366755,"金钟路633号西部102室","购物;便利店"
"全家便利店(天山西路店)",31.223571,121.374261,"天山西路332号","购物;便利店"
"全家便利店(天山西路四店)",31.223951,121.369587,"平塘路与天山西路交叉口西","购物;便利店"
"711便利店(金钟路店)",31.225897,121.357683,"临虹路128弄临空工业园区2号104-105室","购物;便利店"
"罗森便利店(永琰企业中心店)",31.223654,121.363282,"上海区长宁区天山西路567号神州智慧天地1层","购物;便利店"
"迪亚天天(平塘店)",31.225615,121.371537,"上海市长宁区平塘路200-220号A-01室","购物;便利店"
"全家便利店(福泉路一店)",31.215112,121.365668,"福泉路351号","购物;便利店"
"可的便利店(NO.249)",31.22367,121.372816,"天山西路356号(平塘路天山西路)","购物;便利店"
"迪亚天天(泉口店)",31.219223,121.373596,"新泾镇泉口路156号","购物;便利店"
"快客便利店(no.6158)",31.228427,121.371979,"平塘路106号（北翟路平塘路）","购物;便利店"
"罗森便利店(临空经济园区店)",31.222798,121.361345,"天山西路787号上海虹桥临空经济园区130室","购物;便利店"
"伍缘便利店",31.224256,121.374903,"剑河路与天山西路交叉口旁(剑河小区北)","购物;便利店"
"喜士多便利店(金钟路店)",31.226501,121.357723,"金钟路999号虹桥国际科技广场2幢（B栋）第01层-01A单元(近协和路)","购物;便利店"
"易捷便利店(通协小区西南)",31.228116,121.360658,"协和路1025号(通协小区西南)","购物;便利店"
"快客便利店(携程店)",31.225738,121.36471,"福泉路99号(金钟路)","购物;便利店"
"好德便利(福泉路店)",31.208514,121.366879,"福泉路546号(福泉路新潮路)","购物;便利店"
"可的便利店(虹康店)",31.2148,121.368534,"仙霞西路604-2临(淞虹路仙霞西路)","购物;便利店"
"好德(新泉店)",31.211961,121.368973,"新泾路80-2临","购物;便利店"
"良友金伴便利店(福泉路)",31.218934,121.365589,"福泉路552号(福泉路新潮路)","购物;便利店"
"罗森便利店(明基广场店)",31.227952,121.365347,"淞虹路207号明基商务广场A座1层","购物;便利店"
"好德便利(甘溪店)",31.217284,121.366407,"长宁区甘溪路370号（福泉路甘溪路）","购物;便利店"
"好德便利(虹康店)",31.214091,121.373481,"仙霞西路115号(平塘路仙霞西路)","购物;便利店"
"迪亚天天(可乐店)",31.212469,121.366809,"可乐路112-114号(可乐路平塘路)","购物;便利店"
"可的便利店(甘溪店)",31.217205,121.366985,"长宁区甘溪路与福泉路交叉口东侧150米路北","购物;便利店"
"好德(平天店)",31.224755,121.371051,"平塘路与金钟路交叉口南(金钟路平塘路)","购物;便利店"
"好邻居百货超市",31.223553,121.37425,"上海市长宁区天山西路332甲","购物;便利店"
"良友（剑河路店）",31.220771,121.374369,"剑河路403号（剑河路新渔路）","购物;便利店"
"好德便利店(剑新店)",31.220331,121.374358,"剑河路417号(剑河路新渔路)","购物;便利店"
"好德(甘平店)",31.217148,121.371457,"平塘路与甘溪路交叉口旁","购物;便利店"
"三木便利店",31.208062,121.366921,"福泉路556号","购物;便利店"
"快客便利店(仙霞西路)",31.215126,121.365049,"仙霞西路698","购物;便利店"
"哲民烟杂店",31.216626,121.351461,"绥宁路241号附近","购物;便利店"
"良友(平塘路店)",31.223896,121.370257,"天山西路424号（平塘路天山西路）","购物;便利店"
"上海天宁公司烟酒食品店",31.227521,121.372075,"上海市长宁区清池路206-、208号","购物;便利店"
"快客便利店(剑河路)",31.225947,121.374952,"剑河路70号","购物;便利店"
"快客便利店(no.6161)",31.216284,121.365557,"福泉路水晶理发店东南20米","购物;便利店"
"光明便利(金钟店)",31.225805,121.373327,"金钟路328-3临","购物;便利店"
"如意便利店(联虹路)",31.211406,121.356488,"仙霞西路885弄147号101室","购物;便利店"
"新虹日用百货",31.216446,121.35149,"绥宁路","购物;便利店"
"都得利百货",31.217669,121.357144,"北祥路广善敬老院附近","购物;便利店"
"和平便利",31.229073,121.351821,"北翟高架路出口与绥宁路交叉口南50米","购物;便利店"
"祥祥百货烟酒商店",31.21859,121.374568,"剑河路457","购物;便利店"
"长宁区利茂杂货店",31.217366,121.368581,"上海市长宁区淞虹路708号-乙","购物;便利店"
"联冠轩百货经营部",31.216741,121.354242,"可乐路","购物;便利店"
"鸿雅批发",31.218466,121.368165,"淞虹路678号","购物;便利店"
"庆钰百货",31.220995,121.35163,"复新路","购物;便利店"
"许贞爱食品商店",31.216824,121.351029,"绥宁路233号","购物;便利店"
"美东食品商店",31.22435,121.367989,"淞虹路270临","购物;便利店"
"振泰食品经销部虹六门市部",31.217768,121.351534,"可乐路221号253号","购物;便利店"
"嘉汇百货综合经营部",31.209976,121.367425,"新泾路120识别","购物;便利店"
"鑫旺便利",31.227626,121.371753,"清池路220-1号","购物;便利店"
"新乐友烟杂商店",31.212238,121.369254,"可乐路260","购物;便利店"
"华堂便利店",31.220636,121.36777,"淞虹路伊美思牛肉面北侧","购物;便利店"
"忠恒杂货店",31.216936,121.351456,"绥宁路","购物;便利店"
"福彦杂货店",31.210767,121.366204,"福泉路435弄1-127号","购物;便利店"
"黎明便利店",31.216751,121.35148,"绥宁路241号附近","购物;便利店"
"浦江便利店",31.217945,121.368379,"淞虹路692","购物;便利店"
"志超百货",31.215094,121.365148,"上海市长宁区仙霞西路694号","购物;便利店"
"淞宏食品店",31.220015,121.369185,"泉口路272号","购物;便利店"
"鑫龙便利店",31.20903,121.3665,"福泉路495弄1～124号边门绿园十二村","购物;便利店"
"彤丹网络超市",31.208848,121.373881,"哈密路1090号","购物;超市"
"奇奇百货",31.223992,121.369102,"天山西路458临","购物;超市"
"剑辰食品店",31.21817,121.374649,"上海市长宁区剑河路445号-2","购物;商铺"
"强强超市(新泾家苑南)",31.212383,121.356075,"新泾镇仙霞西路888号新泾家园95号","购物"
"吉祥便利",31.214727,121.356054,"可乐路201号","购物"
"常帮杂货店",31.224165,121.37106,"上海市长宁区平塘路254号","购物"
"鑫宝来贸易商行",31.215125,121.35479,"迎乐路108","购物"
"长宽百货经营部",31.227395,121.37341,"上海市长宁区清池路110弄1-4号","购物"
"迎曦食品店",31.213976,121.372743,"仙霞西路297-11号","购物"
"长宁区企龙烟杂店",31.225227,121.351,"天山西路1927临","购物"
"全家便利店(金沙江路二店)",31.243054,121.375176,"金沙江路2198-2200号","购物;便利店"
"711便利店(临虹路店)",31.237194,121.359805,"临虹路128弄临空工业园区2号104-105室","购物;便利店"
"迪亚天天便利店(丰庄北路店)",31.255713,121.364985,"丰庄北路86号","购物;便利店"
"罗森便利店(临新路店)",31.239841,121.35672,"临新路268弄内下沉式广场内(近临新路)","购物;便利店"
"全家便利店(协和二店)",31.236429,121.358394,"协和路1551号101室","购物;便利店"
"好德(泾阳店)",31.242741,121.369999,"泾阳路198号","购物;便利店"
"快客便利店(临虹店)",31.236641,121.355655,"临虹路280弄1号信息大楼1层101室","购物;便利店"
"全家便利店(清峪路店)",31.247954,121.373095,"清峪路600号（朝霞新苑对面）","购物;便利店"
"全家便利店(同普店)",31.240319,121.371027,"同普路1500号","购物;便利店"
"全家便利店(金沙江路三店)",31.247167,121.367215,"丰庄路与金沙江路交汇处兄弟烧烤旁边","购物;便利店"
"全家便利店(棕榈路店)",31.241862,121.368198,"棕榈路店211号","购物;便利店"
"快客便利店(金沙江路)",31.245132,121.371073,"金沙江路2422号(近泾阳路)","购物;便利店"
"迪亚天天",31.242266,121.368843,"泾阳路277","购物;便利店"
"北和便利店",31.231967,121.366967,"上海市长宁区通协路980弄1-92号","购物;便利店"
"良友便利店",31.251792,121.369803,"丰庄路326-328号","购物;便利店"
"喜士多便利店(丰庄北路店)",31.255754,121.371736,"曹安公路1685号E幢E115","购物;便利店"
"快客便利店(祁连社区四村西北)",31.255138,121.374484,"丰庄北路543-545号","购物;便利店"
"良友金伴便利店(云岭西店)",31.233777,121.370237,"云岭西路689弄170号(千阳路云岭西路)","购物;便利店"
"喜士多便利店(金沙江路店)",31.248393,121.360263,"嘉定区金沙江路3131号10号楼108室","购物;便利店"
"快客便利店(no.6888)",31.255546,121.370813,"丰庄北路375弄3号","购物;便利店"
"快客便利店(no.6791)",31.250622,121.365406,"嘉定区新郁路小马烧烤北侧","购物;便利店"
"快客便利店(no.5058)",31.25575,121.363724,"丰庄西路华仔龙虾海鲜小炒旁(佳嘉佳园南)","购物;便利店"
"易捷便利店(金沙江路)",31.248115,121.364664,"金沙江路2960号","购物;便利店"
"快客便利店(丰庄路店)",31.248019,121.367426,"真新街道丰庄路54-56号(浦江之星对面)","购物;便利店"
"客来乐杂货店",31.236926,121.367641,"云岭西路79","购物;便利店"
"快客便利店(no.6229)",31.251026,121.36885,"嘉定区丰庄路283号(明日新苑南)","购物;便利店"
"贺氏便利",31.252539,121.351398,"丰华路352-3临","购物;便利店"
"上海永济",31.248286,121.371661,"清峪路655号","购物;便利店"
"兰兰杂货店(花家浜路)",31.249747,121.371601,"花家浜路275号","购物;便利店"
"阿兰百货(泾阳路店)",31.241601,121.366122,"泾阳路380号","购物;便利店"
"康快洁便利店",31.241963,121.366605,"普陀区香樟路与泾阳路交叉口东100米","购物;便利店"
"牡丹便利店",31.239167,121.3676,"上海市普陀区同普路1515号","购物;便利店"
"快客便利店(no.6974)",31.250392,121.360313,"丰庄西路与金沙江路交叉口北","购物;便利店"
"振鑫杂货店",31.254997,121.375744,"上海市嘉定区丰庄北路581号","购物;便利店"
"高杨烟杂店",31.251954,121.375878,"延川路301号","购物;便利店"
"捷美佳食品(丰庄北路店)",31.255019,121.375498,"丰庄北路569","购物;便利店"
"鹏胜便利店",31.251334,121.369009,"丰庄路297号","购物;便利店"
"长风街道林中商店",31.252001,121.371818,"新侯路65号附近","购物;便利店"
"上海足部保健院真光分公司",31.247529,121.373256,"清峪路571","医疗;疗养院"
"伍缘折扣店",31.247792,121.372796,"上海市普陀区清峪路5605号","购物"
"百合缘生活折扣(新郁路店)",31.248719,121.36386,"上海市嘉定区新郁路133号","购物"
"捷美佳(丰庄北路店)",31.254985,121.375758,"丰庄北路安盛门窗旁","购物"
"迪亚天天(海川店)",31.270364,121.356244,"江桥镇海川路136号爱思宝贝","购物;便利店"
"好德便利(江桥店)",31.263114,121.353659,"江桥二村商业街60-62号","购物;便利店"
"好德便利(曹安国际商城店)",31.259408,121.367326,"上海市嘉定区曹安路1833号曹安国际商城1层","购物;便利店"
"良友(曹安公路店)",31.258846,121.370739,"曹安公路1685号1幢底层A室","购物;便利店"
"迪亚天天",31.266575,121.374714,"靖边路山林熟食旁","购物;便利店"
"江桥供销社",31.264503,121.353268,"华江公路17号","购物;便利店"
"快客便利店(no.6695)",31.262129,121.373225,"普陀区丰庄北路545号","购物;便利店"
"光明便利店(靖边店)",31.265501,121.374876,"靖边路与金鼎路交叉口旁","购物;便利店"
"喜士多便利店(振鑫花园二期北)",31.257338,121.372786,"曹安公路1685号2幢E1-15室(振鑫花园二期北)","购物;便利店"
"易捷便利店(水厂路)",31.280875,121.371934,"普陀区真南路1749号","购物;便利店"
"光明便利(海川路店)",31.271722,121.354726,"嘉怡路嘉城东区旁(近海川路)","购物;便利店"
"快客便利店(no.5555)",31.265574,121.353965,"嘉定区曹安公路2300弄71号","购物;便利店"
"玉龙美发用品商店",31.264792,121.355469,"曹安公路2055号附近","购物;便利店"
"宏玉水果小卖部",31.262336,121.359017,"曹安路1991号C区10号","购物;便利店"
"公牛 插座 家与领导者 永峰五金电器综合商店",31.265138,121.351981,"江桥曹安公路2145号","购物;便利店"
"快客便利店",31.258522,121.36583,"上海市嘉定区曹安公路1909号锦银休闲广场1层","购物;便利店"
"未来便利",31.273509,121.367823,"江桥镇","购物;便利店"
"君云圆食品便利店",31.269397,121.37112,"定边路与桃浦路交叉口西","购物;便利店"
"好德",31.259377,121.368879,"上海市嘉定区曹安路1833号曹安国际商城1层","购物;便利店"
"老久便利店",31.277606,121.372951,"真南路1611弄-1号-a座-29号","购物;便利店"
"苹苹烟杂店",31.260396,121.357805,"丰江路188弄附近","购物;便利店"
"双新杂货店",31.266696,121.355002,"建华路74号附近","购物;便利店"
"福沁杂货店",31.260828,121.370207,"定边路68号附近","购物;便利店"
"旺旺杂货店(建华路)",31.265551,121.354993,"建华路88号附近","购物;便利店"
"上海市嘉定区真新仁义批发部",31.262286,121.358999,"上海市嘉定区江桥曹安路1991号D区3~4号","购物;便利店"
"全佳便利",31.262616,121.359098,"曹安公路1991号附近","购物;便利店"
"磊磊烟杂店",31.267743,121.36138,"曹南路附近","购物;便利店"
"张记便利店",31.272728,121.372582,"绥德路728-107","购物;便利店"
"市场烨烨便利店",31.275932,121.356503,"建华路65号","购物;便利店"
"阿妹杂货店",31.265714,121.355057,"嘉烟网786号","购物;便利店"
"江桥供销社食品杂货门市部",31.264194,121.351794,"华江公路18号附近","购物;便利店"
"诚诚便利店",31.260859,121.369903,"曹安公路与定边路交叉口北130米(嘉秀新苑西南)","购物;便利店"
"光明便利店",31.259805,121.370137,"上海嘉定区曹安公路1718号威隆大厦1层","购物;超市"
"江桥供销社-便民商场",31.264292,121.351558,"江桥一村35号-1","购物"
"伍缘",31.263883,121.353837,"嘉定区建华路88号","购物"
"轶莉食品经营部",31.257416,121.375686,"曹安公路1583号","购物"
"士多店",31.259605,121.367417,"曹安公路1865号曹安国际商城1层","购物"
"上海市嘉定区江桥镇从柙踊醯",31.265138,121.351981,"曹安公路2149-1临","购物"
"惠民超市(江桥店)",31.264277,121.353079,"华江路13号","购物"
"可的便利店(红棉店)",31.289281,121.357708,"雪松路385弄137号","购物;便利店"
"快客便利店(no.5406)",31.287676,121.357437,"红棉路234号","购物;便利店"
"夕阳红杂货店",31.28752,121.357819,"武威路1082弄28号","购物;便利店"
"良友便利(桃浦五村店)",31.291498,121.355215,"上海市普陀区秋桂路59","购物;便利店"
"快客便利店(武威路店)",31.288295,121.352745,"郁里路27号","购物;便利店"
"快客便利店(no.5506)",31.286925,121.354845,"上海市普陀区白丽路237-257号恒达休闲广场1层","购物;便利店"
"家华杂货店",31.284962,121.358392,"白丽路69","购物;便利店"
"良友(雪松路店)",31.288224,121.360782,"雪松路318-1号","购物;便利店"
"世纪便利店",31.301206,121.371468,"南大路与S20外环高速入口交叉口东50米","购物;便利店"
"利男居月饼",31.289667,121.360079,"雪松路393弄280号201室","购物;便利店"
"良友桃浦七村店",31.292939,121.35715,"雪松路512","购物;便利店"
"易捷便利店(南大路)",31.298823,121.36248,"南大路2889号","购物;便利店"
"玖零食品便利店",31.294314,121.352428,"白丽路641号","购物;便利店"
"光明便利店(银杏路)",31.292741,121.351859,"银杏路116号","购物;便利店"
"快客便利店(no.5549)",31.285157,121.35788,"白丽路97","购物;便利店"
"创利便利店",31.294592,121.360329,"真南路家得利超市旁","购物;便利店"
"新杨连华便利",31.298175,121.361817,"红柳路160-13号","购物;便利店"
"光明便利(武威店)",31.286476,121.361246,"武威路与雪松路交叉口旁","购物;便利店"
"东兴海光加油站-便利店",31.302382,121.374528,"南大路758号","购物;便利店"
"周政烟杂店",31.286475,121.360946,"雪松路261号","购物;便利店"
"食尚",31.301306,121.36232,"红柳路238弄62号","购物;便利店"
"洋河蓝色经典玖零食品便利店",31.294207,121.352582,"上海市普陀区","购物;便利店"
"华驰曹杨店",31.292769,121.361642,"绿杨路323号","购物;便利店"
"四方杂货店",31.285011,121.356811,"红棉路104号","购物;便利店"
"西部便利店(NO.01)",31.28967,121.352462,"郁李路与绿杨路交叉口南侧","购物;便利店"
"快容便利店(外环林带普陀区新杨养护段西)",31.305306,121.360212,"柳华路(外环林带普陀区新杨养护段西)","购物;便利店"
"阜润便利店",31.298865,121.371263,"南大路799弄188号北场A楼17号","购物;便利店"
"便利店",31.293271,121.373018,"上海市普陀区古浪路1702弄-160支弄-60号","购物;便利店"
"兰英便利",31.285678,121.357138,"白丽路132号","购物;便利店"
"新宜商店(白丽店)",31.284804,121.359187,"白丽路43号","购物;便利店"
"海华便利店",31.287105,121.359486,"武威路482号","购物;便利店"
"毛线超市",31.289466,121.360112,"桃浦镇雪松路385弄小商品市场","购物"
"东方桃浦三村食品店",31.288925,121.354301,"白丽路401弄113号附近","购物"
"忠诚烟杂店",31.284758,121.359347,"上海市普陀区","购物"
"罗森便利店",31.323377,121.355555,"城银路与市台路交叉口西北100米","购物;便利店"
"宝山区其珍烟杂店",31.330132,121.359403,"陈广路222号附近","购物;便利店"
"123生活超市",31.329584,121.359493,"陈广路与顾陈路交叉口旁","购物;便利店"
"好邻居百货超市",31.320339,121.354816,"城银路607号","购物;便利店"
"张义综合商店",31.320067,121.355489,"城银路宏信果业旁","购物;便利店"
"宝山区仁顺杂货店",31.3305,121.36253,"顾陈路1559号1573号","购物;便利店"
"闪星食品综合商店",31.322522,121.366186,"锦秋路2388号附近","购物;便利店"
"良利食品店",31.31993,121.355821,"城银路579号","购物;超市"
"文伟杂货店",31.330829,121.358695,"顾村镇陈广路陈家行村西街62号","购物"
"健安食品",31.321626,121.357712,"市台路世好吉祥馄饨旁","购物"
"福乐佳超市",31.307387,121.353451,"真陈路五星烧烤南","购物"
"琴伟食品店",31.322775,121.354577,"宝山区市台路好运来旁","购物"
"全家便利店(菊联路店)",31.354196,121.374064,"上海市宝山区菊联路昊元生活广场1层","购物;便利店"
"迪亚天天(菊太店)",31.353061,121.364455,"宝山区菊太路1198弄27－11、12、13号","购物;便利店"
"吉祥便利店宝利店",31.350764,121.359724,"宝太路137","购物;便利店"
"捷强连锁(no.350店)",31.35416,121.374672,"菊联路77","购物;便利店"
"宝山区刘行镇林林杂货店",31.343893,121.37074,"经二路陈富路路口附近","购物;便利店"
"家尔惠便利店",31.351649,121.363342,"菊太路1198弄22-4","购物;便利店"
"闽联便利店",31.340995,121.351671,"刘行镇","购物;便利店"
"宝山区国英综合商店",31.340983,121.366599,"陈富路1273号1428号","购物;便利店"
"宝山区根发综合商店",31.346451,121.374693,"陈富路附近","购物;便利店"
"娃哈哈水站便利店",31.331819,121.358181,"陈广路89号附近","生活服务;家政服务"
"欧特福购物中心",31.353091,121.372288,"宝山区菊联路169号文宝苑菜场2楼(近宝菊路)","购物"
"文宝综合商店",31.354267,121.374935,"菊联路德旺养生粥旁","购物"
"全家便利店(万源城店)",31.15406,121.40088,"闵行区古龙路550号(近乐斯生活馆)","购物;便利店"
"喜士多便利店(龙茗路)",31.142822,121.393978,"龙茗路970号","购物;便利店"
"可的便利店(报春路店)",31.131935,121.400094,"报春路128弄1号","购物;便利店"
"罗森便利店(报春路67号店)",31.131649,121.40039,"莘庄镇报春路67号","购物;便利店"
"快客便利店(no.6959)",31.132035,121.378057,"秀文路561号1层","购物;便利店"
"可的便利店(古龙店)",31.150496,121.390398,"虹幸路平吉二村179号","购物;便利店"
"好德便利(古美西路店)",31.13743,121.393535,"古美西路750号","购物;便利店"
"好德便利(黎安店)",31.135989,121.378814,"闵行黎安路120号甲","购物;便利店"
"杂货店(九星路)",31.155647,121.382086,"九星路7号楼105号","购物;便利店"
"罗森便利店(皇都花园店)",31.139821,121.377188,"顾戴路2000弄75号(近宝铭路)","购物;便利店"
"可的便利店(NO.86)",31.139121,121.400549,"上海市闵行区古美西路426号","购物;便利店"
"良友(虹莘路店)",31.144679,121.388035,"上海市闵行区虹莘路2074号-临","购物;便利店"
"黎东百货商店",31.135058,121.37657,"黎安路570号","购物;便利店"
"好德便利(水清路店)",31.134743,121.381239,"秀文路1108号(黎安四村北)","购物;便利店"
"良友金伴便利店(龙茗路)",31.146102,121.392749,"龙茗路1086-1临","购物;便利店"
"好德便利店(顾茗店)",31.152154,121.390955,"龙茗路1432号101室","购物;便利店"
"易捷便利店",31.152419,121.379509,"星友路与环东一路交叉口南50","购物;便利店"
"好的便利店",31.144463,121.392535,"上海市闵行区顾戴路1196号-b","购物;便利店"
"快客便利店(no.5341)",31.150691,121.389895,"闵行区平吉一村7号101室","购物;便利店"
"港湾便利店",31.151747,121.393344,"古龙路966临","购物;便利店"
"快客便利店(no.5380)",31.144306,121.388074,"闵行区虹莘路2036(东苑半岛花园西)","购物;便利店"
"可的(顾戴店)",31.145445,121.394721,"顾戴路1118号","购物;便利店"
"良全便利(黎安店)",31.136906,121.381021,"黎安路378-3临","购物;便利店"
"莘庄华玲商店",31.131991,121.377354,"莘庄镇秀文路532号","购物;便利店"
"佳佳便利店",31.131424,121.39831,"报春路与龙茗路交叉口旁","购物;便利店"
"七宝镇益双便利店",31.151955,121.387322,"上海市闵行区","购物;便利店"
"切面年糕杂粮店",31.153351,121.390374,"龙茗路1518弄(近报春路)","购物;便利店"
"易购便利商店",31.138424,121.379443,"上海市闵行区水清路1500号港澳服饰商厦(港澳购物中心北)1层","购物;便利店"
"越德食品经营部",31.145759,121.394955,"顾戴路1100弄4号","购物"
"全家便利店(龙宜店)",31.170657,121.387169,"龙茗路2852号","购物;便利店"
"711便利店(虹泉路店)",31.176084,121.382301,"虹泉路888号(银亭路口)","购物;便利店"
"全家便利店(虹泉店)",31.174894,121.379403,"虹泉路1101弄15-16号","购物;便利店"
"快客便利店(华翰店)",31.174103,121.396022,"田林路398号上海艺尊文化传媒有限公司附近","购物;便利店"
"全家便利店(漕宝四店)",31.163123,121.388038,"闵行区漕宝路1505号-1-2(龙茗路口)","购物;便利店"
"快客便利店(no.944)",31.160693,121.399629,"东兰路605号(东兰路与万源路交叉口向东100米)","购物;便利店"
"罗森便利店(龙茗路)",31.164151,121.389375,"漕宝路1467弄静安新城四区85号附近(二区正门)","购物;便利店"
"好德便利(龙宜店)",31.17101,121.388154,"宜山路2307号","购物;便利店"
"罗森便利店(宜山路店)",31.172665,121.39209,"宜山路2016号合川大厦","购物;便利店"
"虹泉便利店",31.174894,121.379405,"虹泉路1101弄15-16号店铺","购物;便利店"
"罗森(锦绣江南店)",31.176777,121.38607,"金汇南路88弄21号1F","购物;便利店"
"好德便利(新城店)",31.167544,121.389445,"田林路1420-1422号","购物;便利店"
"迪亚天天(静安新城店NO.5128)",31.166911,121.39035,"闵行区漕宝路1467弄3区88-89号","购物;便利店"
"七宝丽丽便利店",31.170804,121.384134,"漕宝路1555弄14区11号商铺110号","购物;便利店"
"快客便利店(no.5170)",31.178243,121.388954,"合川路2900号d栋1楼105、106商铺(近环镇南路)","购物;便利店"
"好德便利(环镇南路店)",31.179847,121.395814,"上海市闵行区环镇南路110-6-临","购物;便利店"
"好德(龙茗路店)",31.157396,121.388992,"龙茗路1695号","购物;便利店"
"快客便利店(no.006815)",31.164086,121.376494,"漕宝路3009-3011号","购物;便利店"
"快客便利店(no.5140)",31.17768,121.381,"吴中路1369号欧银中心1层106室","购物;便利店"
"易购便利店",31.163594,121.376822,"漕宝路1788号","购物;便利店"
"易捷便利店(阳光乾城苑北)",31.163412,121.376474,"七宝镇(阳光乾城苑北)","购物;便利店"
"好德便利店",31.159374,121.388629,"上海市闵行区龙茗路1887号","购物;便利店"
"快客便利店(no.5292)",31.180712,121.377217,"虹井路185号r106","购物;便利店"
"桂花家便利店",31.167296,121.384181,"漕宝路1555弄大上海国际花园15区2号112室","购物;便利店"
"全佳便利",31.166282,121.400373,"莲花路1555号上海华一实业大厦1层","购物;便利店"
"虹莘便利店",31.174202,121.378656,"虹莘路3851号","购物;便利店"
"虹桥镇新苑综合商店",31.18068,121.399494,"闵行区环镇南路30号52号","购物;便利店"
"铭顺便利店",31.171261,121.387914,"宜山路2332号","购物;便利店"
"快客便利店(no.6962)",31.165014,121.39927,"漕宝路1249临","购物;便利店"
"喜市多",31.158695,121.382866,"上海市闵行区","购物;便利店"
"光明便利(环城店)",31.18084,121.40011,"虹梅路2555号25号甲(联曹路虹梅南路)","购物;便利店"
"志盛便利店",31.159076,121.37722,"星北街1幢241-242号2层","购物;便利店"
"快客便利店(诚诚店)",31.15874,121.389226,"龙茗路1706号101室(东兰路)","购物;便利店"
"七宝小不点便利店",31.166591,121.386356,"漕宝路1467弄10区6号102室","购物;便利店"
"怏客(佰约店)",31.164998,121.399227,"漕宝路1249临","购物;便利店"
"全家便利店",31.167364,121.388925,"龙茗路2710号(龙茗路田林路)","购物;便利店"
"天旺鸿便利店",31.160775,121.389139,"龙茗路1766号近漕宝路(东南新城)","购物;便利店"
"华宫便利店",31.158695,121.382866,"上海市闵行区","购物;便利店"
"俪俪便利店",31.16406,121.376624,"漕宝路1743","购物;便利店"
"流艺便利店",31.165678,121.399082,"漕宝路1243号","购物;便利店"
"华鑫易购超便利",31.161724,121.388848,"龙茗路1810号","购物;便利店"
"洗衣便利店",31.164185,121.389356,"上海市闵行区","购物;便利店"
"莘泉便利店",31.174453,121.380107,"上海市闵行区虹泉路1101弄49号","购物;便利店"
"闵行区老松综合商店",31.164281,121.389715,"漕宝路1467弄4区1-7号","购物;便利店"
"生活驿站便利店",31.158326,121.389369,"龙茗路1680号113室","购物;便利店"
"百益佳",31.158746,121.389239,"古美街道龙茗路1706号101-D室","购物;超市"
"韩国超市食品",31.174895,121.379404,"虹泉路1101弄4-5号(虹莘路)","购物"
"海星虹桥上虹烟店",31.179953,121.395984,"环镇南路110号2层","购物"
"LAWSON罗森(合川路2679号店)",31.173792,121.389898,"合川路2679号虹桥国际商务广场A楼","购物"
"海元东北干货",31.176814,121.385098,"上海闵行区金汇南路188号附近","购物"
"福临食品经营部",31.165222,121.385837,"上海市闵行区漕宝路1467弄-9区-45号","政府机构;行政单位"
"美顺超市",31.169883,121.384504,"漕宝路1555弄9区1号商铺103","购物"
"古美立新综合经营部",31.157944,121.388821,"上海市闵行区龙茗路1711号","购物"
"小区经营部",31.166706,121.390277,"漕宝路1467弄-3区-90号","购物"
"全家便利店(虹许路店)",31.194055,121.399702,"虹许路528号","购物;便利店"
"711便利店(虹梅路店)",31.198995,121.39009,"虹梅路3911号11幢103室","购物;便利店"
"全家便利店(吴中路店)",31.183914,121.395928,"吴中路972-1","购物;便利店"
"全家便利店(合川路店)",31.186104,121.386299,"合川路3051号莱茵虹桥中心21幢楼1层109单元","购物;便利店"
"全家便利店(金汇路店)",31.187712,121.379298,"红松路139-141号(红松路金汇路)","购物;便利店"
"全家便利店(金汇三店)",31.183883,121.381522,"金汇路462-1临","购物;便利店"
"全家便利店(环镇西路店)",31.183103,121.397032,"环镇西路与吴中路交叉口旁(虹桥怡和园西南)","购物;便利店"
"全家便利店(程家桥路店)",31.195826,121.378576,"程家桥新村4号1楼(安西路长宁路)","购物;便利店"
"好德便利(程桥店)",31.19485,121.378959,"程家桥路78号(程家桥路延安西路)","购物;便利店"
"快客便利店(吴梅店)",31.182918,121.394517,"吴中路1049号","购物;便利店"
"罗森便利店(虹梅路店)",31.197186,121.391672,"闵行区虹梅路3822号(虹梅路延安西路)","购物;便利店"
"长宁区优的百货商店",31.204929,121.398896,"水城南路103临","购物;便利店"
"良友",31.190801,121.382388,"上海市长宁区哈密路2036-3号","购物;便利店"
"烟酒便利店",31.192219,121.380558,"程家桥路239号(a8酒店程家桥店西北)","购物;便利店"
"迪亚天天(虹梅店)",31.185067,121.399926,"虹梅路2905号103室","购物;便利店"
"慢农优选华光路店",31.193878,121.390136,"虹梅路3333号C室","购物;便利店"
"快客便利店(程桥二村东)",31.196283,121.382162,"剑河路2345号(虹桥路剑河路)","购物;便利店"
"可的便利店(新王子店)",31.197905,121.388076,"上海市长宁区虹桥路2222弄47号","购物;便利店"
"喜士多便利店(虹中店)",31.194457,121.383902,"虹中路790-792号（虹中路延安西路）","购物;便利店"
"快客便利店(no.5301)",31.185147,121.391749,"虹中路99号7号铺","购物;便利店"
"好德便利(华光路店)",31.193054,121.388201,"华光路306-1号","购物;便利店"
"喜士多便利店(虹梅二店)",31.194177,121.393677,"闵行区虹梅路3198号（虹梅路华光路）","购物;便利店"
"良友(剑河店)",31.196259,121.382131,"剑河路2353号","购物;便利店"
"联华快客(虹嘉店)",31.19412,121.390631,"虹梅路3333号","购物;便利店"
"良友金伴便利店(哈密店)",31.196611,121.376653,"哈密路2042号(哈密路虹桥路)","购物;便利店"
"喜士多便利店(吴中门市)",31.185249,121.39842,"吴中路860","购物;便利店"
"快客便利店(盛世店)",31.184223,121.39342,"上海闵行区吴中路1050号虹桥盛世莲花广场商务办公楼B幢1层","购物;便利店"
"好德便利(平溪店)",31.199329,121.379481,"平溪路1号(剑河路平溪路交口)","购物;便利店"
"可的便利店(红松路店)",31.187787,121.378049,"红松路180号(红松东路姚虹路)","购物;便利店"
"好德便利(金汇店)",31.183253,121.381692,"上海市闵行区金汇路461号-fa126室","购物;便利店"
"快客便利店(no.5480)",31.192773,121.380096,"程家桥路185号1楼b室","购物;便利店"
"快客便利店(虹梅花苑店)",31.197394,121.385946,"虹桥路2222弄18号底层(近虹梅路)","购物;便利店"
"野奴泾杂货店",31.199156,121.378973,"上海市长宁区平溪路29","购物;便利店"
"华氏便利",31.182948,121.392581,"上海市闵行区吴中路1100号炫润国际大厦1层","购物;便利店"
"光明便利(虹中店)",31.191511,121.38677,"上海市闵行区虹中路480-1号-临","购物;便利店"
"好德便利(红三店)",31.188315,121.381705,"红松路76-78号","购物;便利店"
"光明便利(程家桥店)",31.190983,121.381998,"程家桥路267-12号","购物;便利店"
"晶韩便利店",31.189435,121.376093,"上海市闵行区虹井路636-、638号","购物;便利店"
"快客便利店(no.1173)",31.19412,121.39063,"虹梅路3333号","购物;便利店"
"喜士多便利店(虹梅一门市)",31.194609,121.392919,"上海市闵行区虹梅路3307号-1","购物;便利店"
"好德便利(虹吴店)",31.185995,121.399835,"吴中路798号(虹梅路吴中路)","购物;便利店"
"富群综合商店",31.183841,121.385916,"合川路3089号富群商务大厦C座","购物;便利店"
"上海民虹便利店",31.182511,121.3978,"环镇南路33-11临","购物;便利店"
"快客便利店(no.6166)",31.199009,121.378648,"长宁区平溪路41-43号","购物;便利店"
"馔食生活馆",31.193604,121.399541,"虹许路528号(近红松东路)","购物;便利店"
"怏客便利店",31.185951,121.380372,"虹桥镇金汇路515弄2号1层C室","购物;便利店"
"龙柏荣裕食品商店",31.182813,121.376362,"虹桥镇青杉路20号","购物;便利店"
"闽海便利店",31.199102,121.378815,"平溪路25号102室","购物;便利店"
"上海市长宁区一虎食品商店古北生活支援中心",31.199732,121.399644,"荣华西道19弄10号万科广场内","购物;便利店"
"生琦杂货店",31.196106,121.385571,"延安西路3068号附近","购物;便利店"
"诚信便民店",31.194613,121.385848,"虹中路780弄41号","购物;便利店"
"便利店",31.196078,121.382272,"延安西路与虹井路交叉口旁","购物;便利店"
"华兴便利店",31.190667,121.390078,"程家桥支路100号","购物;便利店"
"好客便利店(老虹井路)",31.18161,121.376562,"老虹井路222号292号(上海银岛桌球俱乐部西)","购物;便利店"
"好德便利(哈密店)",31.196452,121.376682,"哈密路2048号(哈密路虹桥路)","购物;便利店"
"星轩便利店",31.192505,121.378978,"程家桥路168弄29号1楼","购物;便利店"
"金汇虹井便利店",31.187747,121.379532,"红松路131号","购物;便利店"
"正道食品(青杉路店)",31.182869,121.376703,"青杉路2号(近虹井路)","购物;超市"
"尼口尼口(水城南路店)",31.199721,121.400318,"水城南路37号万科广场北楼1101室","购物"
"NICONICO FARM",31.200235,121.400305,"水城南路37号万科广场北楼1101室(近黄金城道)","购物"
"全家便利店(丹巴路)",31.228501,121.38876,"丹巴路98弄7号","购物;便利店"
"好德便利店",31.2275,121.400348,"中江路118弄18号","购物;便利店"
"全家便利店(仙霞路五店)",31.21275,121.391704,"仙霞路739号(近威宁路)","购物;便利店"
"快客便利店(no.5245)",31.227962,121.388271,"丹巴路28弄36号旭辉世纪广场6号楼105室","购物;便利店"
"全家便利店(仙霞路三店)",31.211635,121.39941,"仙霞路457号(水城路芙蓉江路间)","购物;便利店"
"可的便利店(威宁路站店)",31.2208,121.394649,"地铁二号线威宁路站","购物;便利店"
"全家便利店(海益店)",31.221401,121.391383,"天山路310号","购物;便利店"
"罗森便利店(天山西路二店)",31.221792,121.381725,"上海市长宁区天山西路宜嘉坊广场(天山西路)1层","购物;便利店"
"快客便利店(泉口店)",31.222562,121.38068,"天山西路86号(北渔路天山西路)","购物;便利店"
"罗森便利店(光复西路店)",31.226543,121.3892,"云岭东路599弄汇银金融商务中心","购物;便利店"
"良友便利",31.223294,121.376145,"剑河路与天山西路交叉口东(新泾一村西南)","购物;便利店"
"全家便利店(天山西路二店)",31.222048,121.380683,"上海市长宁区天山西路宜嘉坊广场(天山西路)1层","购物;便利店"
"全家便利店(水城路店)",31.21561,121.397277,"水城路12-20号和平广场内(近虹桥路)","购物;便利店"
"良友(水城店)",31.207471,121.398259,"水城路27号","购物;便利店"
"喜士多便利店(水城店)",31.208727,121.397901,"水城路59号（虹古路水城路）","购物;便利店"
"全家便利店(北渔路二店)",31.221278,121.379126,"北渔路与新渔路交叉口附近","购物;便利店"
"罗森便利店(天山西路店)",31.222814,121.376972,"天山西路138号B1楼地铁北新泾站5号出口","购物;便利店"
"快客便利店(no.1618)",31.213229,121.383232,"仙霞路1108号甲","购物;便利店"
"罗森便利店(安龙路店)",31.211302,121.393784,"安龙路525号(安龙路仙霞路)","购物;便利店"
"好德便利(林泉店)",31.213294,121.382839,"仙霞路1112号","购物;便利店"
"良友金伴(芙蓉江路店)",31.211693,121.400825,"仙霞路427号","购物;便利店"
"好德便利(水仙店)",31.214977,121.397747,"水城路458号","购物;便利店"
"好德便利(茅台路店)",31.216445,121.392629,"茅台路728号(茅台路水城路)","购物;便利店"
"迪亚天天(北渔店)",31.222135,121.379295,"上海市长宁区天山西路宜嘉坊广场(天山西路)B1层","购物;便利店"
"可的便利店(新渔店)",31.218212,121.389095,"新渔东路473号","购物;便利店"
"好德便利(北渔店)",31.220983,121.379194,"长宁区北渔路106号(北渔路新渔路)","购物;便利店"
"光明便利店",31.208233,121.395386,"上海市长宁区虹古路377弄-22-4-临","购物;便利店"
"好德便利店",31.216574,121.388177,"茅台路902号","购物;便利店"
"快客便利店(no.5459)",31.221109,121.379427,"北渔路108号(北渔路新渔路)","购物;便利店"
"易捷便利店(天山路)",31.22188,121.387149,"天山路90号第3幢底层A座","购物;便利店"
"可的便利店(仙威店)",31.212381,121.392067,"仙霞路750弄1号","购物;便利店"
"富德便利店(天山店)",31.22109,121.390093,"天山路201号1层02室威宁路(近威宁路)","购物;便利店"
"良友(哈密一店)",31.218185,121.38131,"哈密路430号(铭晖西郊苑西南)","购物;便利店"
"好德(铭晖店)",31.216539,121.381991,"哈密路与泉口路交叉口东","购物;便利店"
"昆仑好客(仙霞路)",31.213199,121.38136,"仙霞西路1310号","购物;便利店"
"快客便利店(no.6172)",31.213528,121.384699,"仙霞路华联超市对面(青溪路仙霞路)","购物;便利店"
"可的便利店(NO.799)",31.208537,121.397845,"水城路49-1临","购物;便利店"
"长宁区安平便利店",31.223261,121.387674,"双流路330号","购物;便利店"
"快客便利店(仙霞路店)",31.212698,121.391088,"仙霞路786号(威宁路与仙霞路交叉口)","购物;便利店"
"易捷便利店(水城路店)",31.211452,121.397225,"仙霞路588号第3幢底层","购物;便利店"
"迪亚天天",31.218044,121.400034,"上海市长宁区天山路585弄36号","购物;便利店"
"易购便利连锁",31.21664,121.385881,"上海市长宁区茅台路1018号","购物;便利店"
"快客便利店(虹古路店)",31.209221,121.393312,"虹古路417弄1号103室(近安龙路)","购物;便利店"
"红顺烟杂店",31.213998,121.378643,"仙霞路1367号","购物;便利店"
"良友(茅台二店)",31.216125,121.396433,"茅台路与芙蓉江路交叉口旁","购物;便利店"
"兴华杂货店",31.217635,121.394096,"安龙路927-2临","购物;便利店"
"快客便利店(no.5378)",31.224392,121.384459,"哈密路100弄8号(明欣公寓西)","购物;便利店"
"可的便利店(小金更店)",31.22154,121.388519,"长宁区天山路204号(双流路天山路)","购物;便利店"
"虹古杂货店",31.209588,121.396934,"虹古路352临","购物;便利店"
"长康便利店",31.2136,121.384442,"仙霞路1033临","购物;便利店"
"芳秀便利店",31.218745,121.398625,"水城路728弄8","购物;便利店"
"兰兰杂货店(新渔东路)",31.217534,121.395847,"新渔东路263号(近威宁路)","购物;便利店"
"兴意杂货店",31.209517,121.396274,"上海市长宁区虹古路369弄-1-～4号","购物;便利店"
"虹光百货",31.209243,121.39407,"虹古路417弄1号403室","购物;便利店"
"新龙便利店",31.229907,121.382434,"长征镇老真北路222号","购物;便利店"
"奥驰食品商店",31.21958,121.378618,"上海市长宁区北渔路115弄-1-～49号","购物;便利店"
"鑫淼商行",31.222508,121.380745,"上海市长宁区天山西路80弄-1-18号","购物;便利店"
"苏北大米鸡蛋批发部",31.220563,121.379562,"上海市长宁区新渔路128-1-临","购物;便利店"
"虹景便利店",31.211447,121.397227,"仙霞路493号","购物;便利店"
"习亮杂货店",31.217371,121.396422,"新渔东路235附近","购物;便利店"
"巾帼小屋便利店",31.219795,121.37904,"上海市长宁区北渔路115弄-1-～49号","购物;便利店"
"雅苑便利店",31.209159,121.390527,"虹古路447-1号","购物;便利店"
"鸿萍杂货店",31.210173,121.393991,"上海市长宁区安龙路461号","购物;便利店"
"敏敏杂货店",31.215792,121.400668,"茅台路450临","购物;便利店"
"俞真综合经营部",31.228928,121.381904,"老真北路160号A-7号","购物;便利店"
"光明里",31.223325,121.38423,"上海市长宁区哈密路180号","购物;便利店"
"捷强(美天菜场太阳店)",31.209326,121.397713,"虹古路335号(虹古路水城路)","购物;商铺"
"康林仁和便利店",31.213567,121.384396,"上海市长宁区仙霞路1023号","公司企业;公司"
"仙霞慈善超市",31.208377,121.395397,"上海市长宁区虹古路377弄-22-3-临","购物"
"百货店",31.223953,121.379106,"北渔路103号","购物"
"全喜便利连锁",31.22325,121.386479,"天山路88弄35号A座","购物"
"平安金融生活超市",31.223547,121.386506,"长宁区天山路88弄288号35号H座元丰天山小区内(近双流路)","购物"
"上海市长宁区明煜食品店",31.212722,121.398235,"水城路382弄8号1楼","购物"
"绍升食品店",31.210834,121.378091,"淮阴路571号","购物"
"上海钻美百货经营部",31.215724,121.398316,"上海市长宁区水城路468弄-后门","购物"
"鸿盛杂货店",31.211202,121.396277,"仙霞路701号(近威宁路)","购物"
"全家便利店(绿洲中环中心北)",31.239841,121.386813,"金沙江路1628弄7号1层108、109室(近真北路)","购物;便利店"
"全家便利店(北石路店)",31.253729,121.400516,"北石路500号56,58号(近分局)","购物;便利店"
"全家便利店(中江路店)",31.24201,121.398604,"中江路949号","购物;便利店"
"罗森便利店(清峪路店)",31.245878,121.376788,"清峪路347-349号","购物;便利店"
"全家便利店(清峪路二店)",31.24649,121.376408,"清峪路370号","购物;便利店"
"喜士多便利店(同普店)",31.238106,121.377061,"普陀区同普路1220号101室-1","购物;便利店"
"全家便利店(梅川路四店)",31.250054,121.386798,"梅川路1390号(近真光路)","购物;便利店"
"好德便利店",31.254896,121.376811,"丰庄北路625","购物;便利店"
"好德便利(金沙江路旗舰店)",31.23819,121.385704,"金沙江路1795号118广场","购物;便利店"
"全家便利店(真光路店)",31.251803,121.389746,"真光路1288号(真光路立交桥)","购物;便利店"
"好德便利(祥和店)",31.250602,121.384277,"梅川路1337号","购物;便利店"
"全家便利店(梅川路五店)",31.246065,121.396621,"梅川路890号","购物;便利店"
"罗森便利店(怒江北路店)",31.243019,121.39207,"怒江北路598号(近红星世贸大厦)","购物;便利店"
"迪亚天天(中江店)",31.247838,121.400256,"梅岭北路与中江路交叉口旁(梅岭新村南)","购物;便利店"
"云雾烟杂店",31.236837,121.395886,"金沙江路1015号","购物;便利店"
"良友(中江路店)",31.241879,121.39657,"中江路875号(怒江北路中江路)","购物;便利店"
"快客便利店(真北路)",31.240975,121.390027,"真北路988号18幢3号1层112室(近金鼎路)","购物;便利店"
"多乐仕便利店",31.249941,121.388128,"真光路1031号","购物;便利店"
"快客便利店(真北路立交)",31.252088,121.400148,"大渡河路1550弄96号(真西新村小区内)","购物;便利店"
"乐天天便利店真光店",31.239508,121.380738,"金沙江路真光路666号","购物;便利店"
"快客便利店(no.6228)",31.243887,121.380717,"清峪路137弄4号1-2室(近新长征花苑一街坊)","购物;便利店"
"快客便利店(怒江北路店)",31.241862,121.396011,"普陀区怒江北路与泸定路交叉口旁(安居朝阳园东南)","购物;便利店"
"快客便利店(no.5031)",31.243099,121.391968,"真北路988号创邑・金沙谷3号楼3-112","购物;便利店"
"可的便利店(新中江店)",31.235509,121.398595,"中江路629号(中江小区对面)","购物;便利店"
"好德便利(大川店)",31.245628,121.39946,"梅川路901号(梅川路中江路)","购物;便利店"
"迪亚天天(清峪店)",31.244666,121.379048,"[峪路205号209号","购物;便利店"
"快客便利店(no.5343)",31.237559,121.398495,"中江路839号1层827号(申汉小区东北)","购物;便利店"
"快客便利店(no.5218)",31.238523,121.37636,"千阳路209号附近","购物;便利店"
"快客便利店(真光路2店)",31.245354,121.386627,"真光路1327号","购物;便利店"
"沈珍杂货店",31.255175,121.380674,"上海市嘉定区曹安路5号桥1501号真新米市84号","购物;便利店"
"可的便利店(金汤店)",31.256364,121.390411,"金汤路151号(金汤路与真光路交叉口)","购物;便利店"
"的多快客便利连锁同普店",31.237157,121.378094,"上海市普陀区同普路1173号","购物;便利店"
"光明便利(梅川路店)",31.245744,121.397226,"梅川路1009号","购物;便利店"
"可的便利店(金沙江路)",31.238877,121.382951,"金沙江路1759号(近圣诺亚大厦门口)","购物;便利店"
"好德便利NO.848",31.248653,121.39902,"上海市普陀区梅岭北路1250号","购物;便利店"
"芳芳食品店",31.242912,121.382604,"长征镇清峪路17号","购物;便利店"
"快客便利店(no.6384)",31.237488,121.392728,"金沙江路1340弄2号(丹巴路金沙江路)","购物;便利店"
"快来(乐天天便利店)",31.239036,121.380316,"真光路660号","购物;便利店"
"快客便利店(no.6236)",31.246318,121.394253,"梅川路与丹巴路交叉口旁(近丹巴路)","购物;便利店"
"快客便利店(no.5507)",31.254468,121.400411,"上海市普陀区","购物;便利店"
"联华快客(中环一店)",31.250763,121.389306,"上海市普陀区真光路1288号中环购物广场1楼A区L103(近梅川路)","购物;便利店"
"快客便利店(no.6233)",31.245772,121.398838,"梅川路933号(近万镇路)","购物;便利店"
"利百家便利店",31.243344,121.381754,"清峪路55-9号","购物;便利店"
"学强食品店",31.243375,121.389631,"真北路1109-4号","购物;便利店"
"光明便利店(真光店)",31.252773,121.389464,"上海市普陀区真光路1475号-3楼-301室","购物;便利店"
"上海普陀区琴燕杂货商店",31.243444,121.389356,"上海市普陀区真北路1109-6号-临","购物;便利店"
"北巷便利店",31.241938,121.39619,"怒江北路与泸定路交叉口旁","购物;便利店"
"好意多便利店",31.239864,121.396161,"上海市普陀区","购物;便利店"
"上海和味食品经营部",31.243444,121.389356,"上海市普陀区真北路1109-6号-临","购物;便利店"
"合麦家麦德龙实验店",31.248112,121.391566,"上海市普陀区真北路1425号","购物"
"四号桥粮油食品店",31.243479,121.389828,"上海市普陀区真北路1143弄-4号","购物"
"曹杨街道杨柳青食品商店",31.248514,121.398332,"梅岭北路1273-2号","购物"
"嘿客e网打尽",31.253574,121.400004,"上海市普陀区大渡河路1550弄-139号","购物"
"小马日用百货",31.242939,121.38258,"清峪路15号","购物"
"任乐食品商店(梅川店)",31.251476,121.382955,"梅川路1373-1","购物"
"蔡记食品店",31.256334,121.391904,"金汤路98号","购物"
"建根食品店",31.25635,121.391749,"真光路1700-15号","购物"
"德利食品店",31.244526,121.399211,"上海市普陀区中江路1067弄-2-～54号","购物"
"快客便利店(南祁店)",31.280102,121.381012,"真南路1226弄5号102B","购物;便利店"
"全家便利店(真南路店)",31.275148,121.395214,"真南路500号9号楼103室","购物;便利店"
"全家便利店(交通路店)",31.27386,121.397132,"交通路4715号-4719号(近真南路)","购物;便利店"
"全家便利店(子洲路店)",31.258306,121.394889,"子洲路145-1号（近铜川路）","购物;便利店"
"快客便利店(no.5376)",31.276408,121.385696,"宝山区祁连山路15号","购物;便利店"
"迪亚天天(桃浦店)",31.265834,121.393576,"桃浦路810号101室","购物;便利店"
"好德便利(桃浦店)",31.265753,121.395484,"普陀区桃浦路724号","购物;便利店"
"好德便利(双河店)",31.264238,121.384635,"普陀区普陀双河路436号（金鼎路双河路）","购物;便利店"
"佳佳文具小百货",31.257382,121.387189,"上海市普陀区金汤路332临","购物;便利店"
"可的便利店(真北店)",31.274,121.400093,"真北路2962号(真北路真北支路)","购物;便利店"
"快客便利店(no.6822)",31.274915,121.39374,"普陀区真南路671号","购物;便利店"
"光明里(no.803)",31.256778,121.40073,"上海市普陀区铜川路1422弄-1-46号","购物;便利店"
"旺达塑料制品批发部",31.270336,121.399014,"真北路2653号新光彩商品建材批发市场7区7号","购物;便利店"
"快客便利店(好客店)",31.256816,121.382473,"曹安路1386号--1","购物;便利店"
"好德便利(浦双店)",31.266837,121.385061,"桃浦路1205号","购物;便利店"
"昆仑好客(真光路店)",31.259862,121.392196,"上海市普陀区真光路1915弄-50支弄-1号","购物;便利店"
"快客便利店(no.1348)",31.257814,121.384987,"金汤路648-1号(真新新村嘉德坊南)","购物;便利店"
"快客便利店(no.1607)",31.273925,121.39788,"上海市普陀区交通路4654-、4656-、4658号","购物;便利店"
"好德便利(铜川店)",31.257814,121.394705,"铜川路1713号(铜川路子洲路)","购物;便利店"
"光明便利",31.273106,121.384406,"祁连山南路2888号耀光中环国际B座1层","购物;便利店"
"好德便利(金汤店)",31.256485,121.390291,"金汤路155号1号楼02室(金汤路真光路)","购物;便利店"
"上海鹏发一次性包装劳防用品批发部",31.269261,121.398973,"真北路2653号上海新光彩商品建材批发市场3区17号","购物;便利店"
"金泰香烛寿品批发零售部",31.266338,121.390847,"高陵路549","购物;便利店"
"小卖部",31.261135,121.392822,"上海市普陀区","购物;便利店"
"富乐杂货店",31.256803,121.394626,"子洲路58弄真光十小区附近","购物;便利店"
"易捷便利店(真南路)",31.275648,121.389973,"桃浦镇真南路825号","购物;便利店"
"光明便利店",31.273466,121.397931,"真南路500号同济大学侧","购物;便利店"
"快客便利店(no.1331)",31.266213,121.390731,"真北支路与桃浦路交叉口旁(近真北路)","购物;便利店"
"快客便利店(NO.5189)",31.263916,121.382512,"祁连山南路与金鼎路交叉口东50米","购物;便利店"
"快客便利店(no.6246)",31.264606,121.393814,"真光路2171","购物;便利店"
"超人便利店",31.270379,121.397302,"真如镇街道真北路2653号光彩市场宿舍楼门口","购物;便利店"
"光明便利(真南路店)",31.274802,121.39764,"真南路与交通路交叉口南150米(近真北路)","购物;便利店"
"伟欣综合杂品金汤店",31.257749,121.394713,"子洲路101号","购物;便利店"
"置辰便利",31.267718,121.396602,"子洲路685号","购物;便利店"
"快购便利",31.26832,121.38477,"上海市普陀区绥德路175弄-3号-9号","购物;便利店"
"易购便利店",31.276218,121.389762,"普陀区真南路咸肉菜饭骨头汤旁","购物;便利店"
"香樟便利",31.267418,121.384411,"桃浦路1238号","购物;便利店"
"成隆百货批发部",31.269871,121.398228,"真北路2653号上海新光彩商品建材批发市场6区C-4号","购物;便利店"
"林丹食品店",31.266626,121.385152,"双河路597号","购物;便利店"
"芳芳便利",31.279693,121.382008,"真南路1228弄上海康建商务广场8号楼115","购物;便利店"
"世纪便利店",31.277814,121.377176,"上海市普陀区","购物;便利店"
"中国海油沪002号-便利店",31.25837,121.379874,"祁连山南路2180","购物;便利店"
"快客便利店(no.5273)",31.258442,121.393754,"铜川路水果行旁","购物;便利店"
"上海惠珍便利店",31.261902,121.396306,"子洲路356号甲","购物;便利店"
"伟唐俊便利店",31.268098,121.378392,"靖边路与桃浦路交叉口东230米","购物;便利店"
"为民杂货店(双河路)",31.264157,121.384305,"上海市嘉定区双河路440号","购物;便利店"
"普陀区桂兰食品百货店",31.265019,121.399873,"桃浦路341号附近","购物;便利店"
"阿土伯蛋铺",31.273747,121.397022,"交通路4703弄6号楼708室(近同济大学沪西校区)","购物;便利店"
"快客便利店(NO.5446)",31.264301,121.379678,"上海市普陀区金鼎路1500号","购物;便利店"
"志弘便利店",31.265821,121.397991,"子洲路与桃浦路交叉口旁","购物;便利店"
"维坚烟酒店",31.259314,121.376256,"曹安路1588弄8号","购物;商铺"
"捷强连锁(桃浦店)",31.267166,121.385772,"桃浦路1180号(双河路桃浦路)","购物;商铺"
"志弘便利j-1002",31.265766,121.397838,"桃浦路604","购物"
"芳芳杂货店",31.263977,121.381953,"上海市嘉定区金鼎路1386号","购物"
"辰泰烟酒便利店",31.259036,121.379132,"祁连山南路2215号101室","购物"
"四季超市",31.261837,121.39556,"真光路2016号附近","购物"
"勇钢杂货店",31.273676,121.399994,"真北路2944号附近","购物"
"好德便利(李园店)",31.285683,121.391374,"上海市普陀区真南路822弄-510支弄-9号","购物;便利店"
"银华便利店",31.282443,121.384946,"上海市普陀区祁连山路226号","购物;便利店"
"迪亚天天(no.59201)",31.297271,121.396841,"祁顺路1283号","购物;便利店"
"迪亚天天(古浪店)",31.286586,121.391983,"上海市普陀区真南路822弄-521支弄-78号","购物;便利店"
"上海市宝山区龙英杂货店",31.304991,121.387302,"南大路511号附近","购物;便利店"
"捷强连锁(NO.220)",31.304361,121.386517,"上海市祁连山路1868号","购物;便利店"
"便民便利店",31.305017,121.38399,"大场镇张家宅135号","购物;便利店"
"小胡小卖部",31.30534,121.397139,"上海市宝山区","购物;便利店"
"美宜家便利店连亮路店",31.297081,121.396781,"连亮路110(荣和家园和怡佳公寓)","购物;便利店"
"易捷便利店(南大路)",31.305432,121.391275,"南大路387","购物;便利店"
"易捷便利店(古浪路)",31.289073,121.388785,"古浪路531号","购物;便利店"
"上海市普陀区福联百货便利店",31.290498,121.392441,"祁安路60","购物;便利店"
"魏秀平便利店",31.296751,121.383988,"上海市宝山区祁连山路1268号-甲","购物;便利店"
"慧佳便利店",31.286794,121.391964,"上海市普陀区真南路822弄-521支弄-78号","购物;便利店"
"立立百货店",31.287227,121.380318,"常和路210号","购物;便利店"
"全家便利店(聚丰园路店)",31.32638,121.393899,"地铁7号线上海大学路站-7-101(近上大路)3号出口","购物;便利店"
"好德便利(聚丰店)",31.320444,121.386169,"宝山聚丰园路367号","购物;便利店"
"迪亚天天(锦秋店)",31.324297,121.385104,"锦秋路1385-1391号","购物;便利店"
"快客便利店(no.5366)",31.326639,121.395403,"上海市宝山区锦秋路809号锦秋新天地1层","购物;便利店"
"快客便利店(no.5329)",31.319388,121.381294,"上海市宝山区","购物;便利店"
"快客便利店(锦秋店)",31.325152,121.390854,"锦秋路1152号(近祁连山路)","购物;便利店"
"易捷便利店(上大路)",31.316077,121.388221,"祁连山路2479号","购物;便利店"
"光明便利(锦秋店)",31.325574,121.39282,"锦秋路998号","购物;便利店"
"良友金伴便利店",31.324535,121.386343,"锦秋路1327号","购物;便利店"
"快客便利店(上大店)",31.320358,121.390429,"聚丰园路188弄190号","购物;便利店"
"光明便利(上海大学店)",31.320104,121.386609,"宝山区聚丰园路55号弘基广场内(近祁连山路)","购物;便利店"
"光明便利(上海大学店)",31.321036,121.393384,"聚丰园路55号弘基广场内","购物;便利店"
"近祁连山路快客便利卓技店",31.326683,121.395396,"锦秋路731号","购物;便利店"
"快客便利店(聚丰园店)",31.320499,121.391946,"聚丰园路138","购物;便利店"
"上海市宝山区依琳食品店",31.328927,121.387037,"上海市宝山区祁华路68号","购物;便利店"
"捷强连锁(学林苑东北)",31.321603,121.392839,"聚丰园路55号弘基广场1楼(近祁连山路)","购物;便利店"
"快客便利店(祁连欣苑东)",31.319619,121.384098,"宝山区聚丰园路470号(祁连欣苑东)","购物;便利店"
"宝山区琪骐综合商店",31.326166,121.391242,"上海市宝山区锦秋路809号锦秋新天地1层","购物;便利店"
"良友金伴便利店",31.320069,121.385338,"祁中路与聚丰园路交叉口西(锦龙苑西)","购物;便利店"
"迪亚天天(聚丰园店)",31.320386,121.384918,"聚丰园路435-1临","购物;便利店"
"快客便利（上祁店）",31.320357,121.390424,"上海市宝山区聚丰园路188弄-196号","购物;便利店"
"祁连便利店",31.319228,121.387637,"祁连山路2598临","购物;便利店"
"雨润熟食(祁连连锁店)",31.323937,121.384782,"锦秋路1374","购物;商铺"
"万事缘百货商店",31.311614,121.381691,"丰翔路300弄101号-113栋上海泰洁洗烫设备有限公司(张八房)附近","购物;便利店"
"宝山区龙妹食品商店",31.326768,121.396872,"上海市宝山区锦秋路锦秋花园新时代广场1层","购物;便利店"
"宝山区轶鸣综合商店",31.316271,121.390763,"上大路1296","购物;便利店"
"二村便利",31.320497,121.386899,"聚丰园路333附近","购物;便利店"
"福乐便利店",31.326087,121.37656,"卫岗路上海沪馨装饰公司旁","购物;便利店"
"金新便利店",31.320699,121.383461,"聚丰园路467号附近","购物;便利店"
"传秀百货店",31.325579,121.392844,"上海市宝山区锦秋路1036号","购物;便利店"
"宝山区祁丰杂货店",31.315284,121.387474,"上海市宝山区祁连山路2398号","购物"
"批发部",31.32825,121.383977,"祁华路225-227","购物"
"上海市宝山区丽芬杂货店",31.337673,121.383695,"顾陈路510-6临","购物;便利店"
"易捷便利店(顾村公园北)",31.353619,121.390921,"沪太公路4395号","购物;便利店"
"快客便利店(no.5537)",31.350108,121.380608,"上海市宝山区镜泊湖路555弄1～6号万尚生活广场1层","购物;便利店"
"路口便利店",31.338981,121.386294,"顾陈路495号","购物;便利店"
"鑫隆便利商店",31.334652,121.392648,"上海市宝山区塘祁路933号","购物;便利店"
"诚信蔬菜百货综合便利店",31.339384,121.387035,"顾陈路485号","购物;便利店"
"仕元百货店",31.346282,121.39965,"顾陈路318号附近","购物;便利店"
"同乐商店",31.338779,121.385766,"顾陈路488号","购物;便利店"
"服务区-易捷便利店",31.342223,121.3785,"上海市宝山区","购物;便利店"
"秀娟日用品商店",31.347211,121.376118,"陈富路831号","购物;便利店"
"德迪便利",31.340505,121.390476,"顾陈路422号附近","购物;便利店"
"晓晓便利店",31.33593,121.378615,"顾陈路800-33临","购物;便利店"
"沈杨综合商店",31.336376,121.379087,"顾陈路807-1号临附近","购物;便利店"
"拉卡拉小店",31.355867,121.389212,"沪太路4988号-1幢","购物"
"鲜德宝(陆翔路店)",31.349505,121.379706,"陆翔路(近顾村公园2号口)","购物"
"友乐百货",31.335999,121.378933,"顾陈路760号798号","购物"
"世纪便利(白杨店)",31.344874,121.396229,"上海市宝山区","购物"
"全家便利店(万源路店)",31.14652,121.40272,"万源路440-442号(儿童医学中心对面)","购物;便利店"
"全家便利店(平阳路店)",31.149004,121.415586,"闵行区平阳路55号","购物;便利店"
"全家便利店(莲花路站店)",31.137119,121.409484,"地铁1号线莲花路站J-1-102商铺莲花路北2出口","购物;便利店"
"711便利店(莲花店)",31.137008,121.409376,"地铁一号线莲花路站8-10铺(莲花路地铁站)","购物;便利店"
"全家便利店(锦园店)",31.14775,121.419886,"沪闵路8087号","购物;便利店"
"罗森便利店(平阳路)",31.143999,121.40384,"平阳路652号(食其家)","购物;便利店"
"好德便利(梅陇店)",31.142605,121.420385,"梅陇西路与虹梅南路交叉口旁","购物;便利店"
"可的便利店(平阳店)",31.149525,121.416288,"虹梅路263号(平阳路)","购物;便利店"
"全家便利店(江安路店)",31.155245,121.423036,"江安路8号-1室(虹漕南路江安路)","购物;便利店"
"光明便利(罗秀店)",31.133793,121.419159,"闵行区罗秀路1525号","购物;便利店"
"好德便利(嘉和店)",31.134222,121.409017,"罗秀路2005临(罗秀路梅陇西路)","购物;便利店"
"好德便利(望族店)",31.152764,121.410482,"古美路685号(古美路平吉路)","购物;便利店"
"良友(梅陇路店)",31.143492,121.422482,"梅陇路394弄2号","购物;便利店"
"春华食品经营部",31.13358,121.421033,"罗秀路镇西路口陇南市场25号","购物;便利店"
"良友金伴(闵行古美西店)",31.141583,121.408045,"古美西路50-1临","购物;便利店"
"可的便利店(NO.664)",31.141177,121.407089,"古方路与古美西路交叉口旁(古方路古美西路)","购物;便利店"
"快客便利店(no.6466)",31.145973,121.407512,"上海市闵行区莲花路325弄-26号-402室","购物;便利店"
"快客便利店(no.6087)",31.137446,121.423528,"上中西路752号(近虹梅南路)","购物;便利店"
"梅陇罗秀综合商店",31.133723,121.418114,"罗秀路1559号","购物;便利店"
"快客便利店(no.6282)",31.14049,121.405457,"古美西路194号","购物;便利店"
"好德便利店",31.136179,121.414808,"上中西路1266号","购物;便利店"
"快客便利店(NO.6645)",31.136346,121.408717,"沪闵路7367号(近地铁1号线莲花路站北2出口)","购物;便利店"
"快客便利店(锦江店)",31.147099,121.419099,"沪闵路8071号（沪闵路与中环路交叉口徐汇新西南汽车站旁）","购物;便利店"
"快客便利店(no.6472)",31.136251,121.41009,"梅陇镇45弄1号-2号（益文路120弄28号）","购物;便利店"
"快客便利店",31.144738,121.42004,"虹梅南路108-7","购物;便利店"
"樱中便利店",31.15138,121.419718,"百花街373临","购物;便利店"
"快客便利店(虹梅路店)",31.147472,121.416974,"徐汇区虹梅路227号(虹梅南路梅陇路)","购物;便利店"
"多多便利店",31.152446,121.420973,"百花街345弄-1-~118号","购物;便利店"
"易捷便利店(上中西路)",31.136869,121.424969,"梅陇镇虹梅南路505号","购物;便利店"
"牛奶商城(虹梅南路店)",31.14458,121.421055,"虹梅南路126弄367号","购物;便利店"
"易捷便利店(迎春园东北)",31.153936,121.425115,"徐汇区虹漕南路777号3幢1层A(迎春园东北)","购物;便利店"
"锦鸿便利店",31.14277,121.418044,"梅陇镇益文路101弄","购物;便利店"
"小卖部",31.145407,121.414685,"上海市闵行区虹梅路201号锦江乐园内","购物;便利店"
"鹏辉杂货店",31.14609,121.424522,"上海市徐汇区虹梅南路126弄-300号-临","购物;便利店"
"群立综合商店",31.14442,121.420274,"凌云街道虹梅南路126弄366号","购物;便利店"
"古美永顺便民店",31.149269,121.415211,"平阳路50弄古美七村4号门口小店","购物;便利店"
"南方新村便利店",31.141269,121.407334,"上海市闵行区","购物;便利店"
"保久便利店",31.131586,121.425185,"梅陇镇同乐路177号","购物;便利店"
"徐汇江安便利店",31.154896,121.42227,"江安路与虹漕南路交叉口旁","购物;便利店"
"益源杂货店",31.142016,121.41853,"益文路79弄附近","购物;便利店"
"良友金伴(闵行望族苑店)",31.134641,121.414322,"罗秀路1697号望族苑5号102室(近上中西路)","购物;便利店"
"小卖部",31.14632,121.416693,"上海市闵行区虹梅路201号锦江乐园内","购物;便利店"
"晓华杂货店",31.140705,121.419078,"益文路79弄附近","购物;便利店"
"梅陇南酱店",31.143761,121.419149,"上海市闵行区益文路80弄-15支弄-30号-临","购物;便利店"
"梅陇锦梅商店",31.142617,121.420504,"上海市闵行区虹梅南路207号-临","购物;便利店"
"南方便利店",31.139464,121.408507,"上海市闵行区古方路18号南方休闲广场1层","购物;便利店"
"小卖部",31.146584,121.416258,"上海市闵行区虹梅路201号锦江乐园内","购物;便利店"
"美好综合店",31.145515,121.424771,"凌云街道凌云新村5号","购物;便利店"
"锦云商店",31.144209,121.414838,"上海市闵行区虹梅路201号锦江乐园内","购物;便利店"
"锦乐便利",31.147133,121.417186,"虹梅路201号(虹梅南路梅陇路)","购物;便利店"
"梅陇申华商店",31.133519,121.420866,"罗秀路1505号力欧桌球俱乐部附近","购物;便利店"
"永兴综合商店",31.146359,121.408458,"平阳路450号","购物"
"老同盛(古美西路店)",31.13965,121.402718,"古美西路306临","购物"
"上海阿根杂货店",31.143432,121.422334,"梅陇路396-1临","购物"
"罗森便利店(古美路店)",31.170145,121.405492,"古美路1528号漕河泾现代服务业园区B1层商业用房D2室","购物;便利店"
"罗森便利店(兴园科技广场店)",31.170622,121.411545,"上海徐汇区桂平路410-418号漕河泾国际孵化中心1层","购物;便利店"
"全家便利店(宜山路七店)",31.178656,121.413347,"宜山路810号","购物;便利店"
"全家便利店(桂林店)",31.174094,121.42507,"桂林路211-213号(漕宝路桂林路)","购物;便利店"
"711便利店(古美路店)",31.173639,121.405123,"古美路1528号漕河泾现代服务园区大厦a7号楼1楼","购物;便利店"
"全家便利店(中友嘉园西北)",31.166101,121.405842,"古美路1498号(漕宝路口)","购物;便利店"
"快客便利店(田州店)",31.167954,121.404029,"田州路99号9号楼1楼裙房","购物;便利店"
"全家便利店(桂箐路店)",31.171237,121.411316,"桂箐路7号","购物;便利店"
"罗森便利店(宜山路店)",31.178589,121.41461,"宜山路2016号合川大厦(近凯旋路)","购物;便利店"
"全家便利店(桂平路店)",31.170326,121.410767,"桂平路391号新漕河泾国际商务中心内(漕宝路桂平路)","购物;便利店"
"711便利店(科产店)",31.17802,121.408121,"徐汇区宜山路900号科产休闲广场1楼(近桂平路)","购物;便利店"
"罗森便利店(钦州南路店)",31.164475,121.425853,"钦州南路552号(近桂林路)","购物;便利店"
"711便利店(田林路店)",31.175924,121.420138,"上海市徐汇区田林路132号10-2近苍梧路","购物;便利店"
"罗森便利店(科创中心店)",31.174795,121.404197,"虹梅路1905号第1层102室","购物;便利店"
"全家便利店(苍梧路店)",31.175402,121.419787,"苍梧路店25号","购物;便利店"
"好德便利(虹南店)",31.180717,121.401984,"虹梅路2656-4号","购物;便利店"
"全家便利店(漕宝路五店)",31.170222,121.41906,"漕宝路320号(近虹漕南路)","购物;便利店"
"快客便利店(no.6438)",31.18025,121.411456,"桂箐路69号","购物;便利店"
"711便利店(桂平路店)",31.169742,121.410471,"徐汇区桂平路391号漕河泾国际商务中心1楼(近漕宝路)","购物;便利店"
"喜士多便利店(越界店)",31.176826,121.418609,"田林路140号16号楼(近苍梧路)","购物;便利店"
"罗森便利店(田林路店)",31.17698,121.424303,"桂林路385-1号","购物;便利店"
"罗森便利店(桂林路店)",31.177953,121.423885,"上海市徐汇区桂林路403号","购物;便利店"
"全家便利店(紫竹园店)",31.1583,121.421081,"上海市徐汇区","购物;便利店"
"全家便利店(宜山路二店)",31.18095,121.423059,"上海市徐汇区宜山路700号","购物;便利店"
"迪亚天天(龙茗店)",31.163404,121.406792,"东兰路1111弄46号","购物;便利店"
"易购便利店",31.165035,121.413408,"徐汇区桂平路茶语轩旁","购物;便利店"
"好德便利(桂街店)",31.161641,121.423064,"上海市徐汇区桂林西街17-1号-临","购物;便利店"
"全家便利店(浦北路二店)",31.157242,121.41831,"浦北路1081-2","购物;便利店"
"快客便利店(no.5105)",31.16704,121.412512,"桂平路333号3号楼103室","购物;便利店"
"好德(古美二店)",31.162315,121.407259,"古美路与东兰路交叉口旁(东兰路古美路)","购物;便利店"
"良友(古美店)",31.161496,121.407518,"古美路1090号","购物;便利店"
"快客便利店(清源店)",31.170758,121.419003,"漕宝路329号(虹漕路虹漕南路)","购物;便利店"
"罗森便利店(桂平路店)",31.156868,121.418072,"桂平路130号(桂平路浦北路)","购物;便利店"
"好德便利(桂林店)",31.172131,121.425439,"桂林路121号(近康健路)","购物;便利店"
"罗森便利店(创新大厦店)",31.176599,121.407473,"上海徐汇区宜山路1009号1楼二单元","购物;便利店"
"利民小卖部",31.165156,121.413611,"桂平路285-3号","购物;便利店"
"迪亚天天(虹漕南路店)",31.163495,121.420039,"虹漕南路300弄9号","购物;便利店"
"可的便利店(桂林店)",31.174098,121.423506,"桂林路396浦原科技园3号楼1层118室","购物;便利店"
"快客便利店(no.5298)",31.165137,121.406172,"古美路万州面馆旁(同济华城东)","购物;便利店"
"良友便利店",31.162747,121.419162,"钦州南路736号","购物;便利店"
"可的便利店(桂平店)",31.165009,121.414016,"桂平路286-288","购物;便利店"
"快客便利店(no.5232)",31.179698,121.402315,"上海市徐汇区虹梅路2596号","购物;便利店"
"良友便利店",31.162106,121.404549,"上海市闵行区东兰路320-19号-临","购物;便利店"
"振泰食品经销部(虹漕路店)",31.171105,121.418541,"虹漕路8-1号临附近","购物;便利店"
"可的便利店(虹漕店)",31.166183,121.419497,"上海市徐汇区虹漕南路188号","购物;便利店"
"光明便利店(长丰坊东)",31.160651,121.423075,"桂林西街31号康兴市场40号","购物;便利店"
"快客便利店(no.6740)",31.161942,121.403923,"东兰路258-3识别","购物;便利店"
"好德便利(虹梅店)",31.180993,121.401006,"虹梅路2309弄4号102室","购物;便利店"
"快客便利店(虹漕南路店)",31.166109,121.419827,"虹漕南路183号","购物;便利店"
"快客便利店(no.5187)",31.158332,121.408824,"古美路1010","购物;便利店"
"美洁便利店",31.159642,121.403317,"上海市闵行区莲花路1112-5-临","购物;便利店"
"美漕便利店",31.166082,121.405195,"漕宝路1094号","购物;便利店"
"益家便利店",31.180637,121.418651,"上海市徐汇区苍梧路354-临","购物;便利店"
"良友(浦北店)",31.158273,121.420996,"虹漕南路与浦北路交叉口西侧","购物;便利店"
"喜士多便利店(宜林店)",31.180176,121.422303,"上海市徐汇区宜山路705号C703室","购物;便利店"
"融民",31.164623,121.414245,"桂平路桂平小区旁","购物;便利店"
"良友便利店",31.165893,121.413199,"桂平路狄龙商务楼旁","购物;便利店"
"天天便利店",31.167384,121.417625,"虹漕南路杨家桥16","购物;便利店"
"舒适综合便利店",31.167788,121.412452,"漕宝路与桂平路交叉口南","购物;便利店"
"丰华正茂食品屋",31.173168,121.410281,"桂平路471-1临","购物;便利店"
"红柳食品经营部",31.163524,121.420027,"虹漕南路302号","购物;便利店"
"易购(虹漕路店)",31.17113,121.418548,"虹漕路8-3临","购物;便利店"
"易购廉果业虹梅店",31.179397,121.402521,"虹梅路2570,2572号","购物;便利店"
"上海徐汇区建青综合商店",31.16278,121.41928,"上海市徐汇区钦州南路736-1号-临","购物;便利店"
"易购田林店",31.175919,121.421799,"上海市徐汇区苍梧路12号iNTOWN1层","购物;便利店"
"陈记便利店",31.161985,121.404128,"东兰路121弄古美小区1号楼","购物;便利店"
"华申食品店",31.164695,121.413867,"上海市徐汇区桂平路277弄-1-14号","购物;便利店"
"徐汇区敏敏烟杂店",31.15704,121.417433,"浦北路1095号","购物;便利店"
"上海市徐汇区便民食品经营部",31.163942,121.42369,"钦州南路638-2临","购物;超市"
"捷强连锁(东兰店)",31.16378,121.40921,"东兰路228号(虹梅路口)","购物"
"东兰文具百货",31.162159,121.407488,"上海市闵行区东兰路51弄14号","购物"
"康乐小食品",31.159686,121.419419,"百花街15号附近","购物"
"慧林烟杂商店",31.161231,121.423114,"上海市徐汇区桂林西街27-3号-临","购物"
"全家便利店(黄金城道二店)",31.200794,121.402632,"黄金城道838-1临","购物;便利店"
"全家便利店(安顺路店)",31.206377,121.420724,"上海市长宁区安顺路246号","购物;便利店"
"全家便利店(富贵东道店)",31.201144,121.412876,"富贵东道308号","购物;便利店"
"罗森便利店(黄金城道店)",31.199533,121.401002,"水城南路新巴克旁","购物;便利店"
"罗森便利店(宋园路店)",31.197961,121.419815,"宋园路97号(古羊路宋园路)","购物;便利店"
"全家便利店(钦州北路三店)",31.186144,121.415874,"钦州北路1016号","购物;便利店"
"好德便利(吴中店)",31.189916,121.410318,"吴中路511弄古北新城22-5-6号","购物;便利店"
"全家便利店(黄金城道店)",31.200972,121.406725,"黄金城道711临","购物;便利店"
"罗森便利店(西南软件园店)",31.184452,121.413696,"虹漕路461号漕河泾软件大厦1层A","购物;便利店"
"全家便利店(钦江路店)",31.182644,121.415875,"钦江路102号1楼","购物;便利店"
"全家便利店(钦州北路)",31.186749,121.425599,"钦州北路258-260号","购物;便利店"
"好德百丽国际广场店",31.186459,121.425869,"上海徐汇区柳州路928号百丽国际广场1层","购物;便利店"
"罗森便利店(文广大厦店)",31.203165,121.413154,"虹桥路1386号文广大厦1层W101室","购物;便利店"
"好德便利(吴中路店)",31.192847,121.419095,"闵行区虹桥镇吴中路378-6378-7号","购物;便利店"
"全家便利店(桂林路店)",31.182245,121.422282,"桂林路515号(钦江路,华利公寓,大浪淘沙,长春新苑和新宜街等等)","购物;便利店"
"可的便利店(吴中NO.2)",31.186937,121.403006,"吴中路685号102室","购物;便利店"
"喜士多便利店",31.189755,121.409112,"吴中路古北新城","购物;便利店"
"全家便利店(宋园路站店)",31.202804,121.418318,"轨道交通10号线宋园路站10-101号(近虹桥路)","购物;便利店"
"良友金伴(中山西店)",31.197751,121.425592,"上海市长宁区中山西路1436号-3","购物;便利店"
"好德便利(张虹店)",31.19628,121.419237,"张虹路120弄5号(红松东路张虹路)","购物;便利店"
"良友便利店",31.20271,121.419691,"虹桥路1027号","购物;便利店"
"迪亚天天(钦州北店)",31.186495,121.424065,"钦州北路中国建设银行斜对面(广厦公寓东北)","购物;便利店"
"好德便利(吴中店)",31.187742,121.403942,"吴中路511弄古北新城22-5-6号","购物;便利店"
"快客便利店(no.6465)",31.185086,121.412484,"虹梅路","购物;便利店"
"罗森便利店(东银中心店)",31.204386,121.405928,"红宝石路500号北裙楼1楼（近延安高架）","购物;便利店"
"小快客便利店",31.199917,121.403197,"上海市长宁区荣华东道60弄1-4号","购物;便利店"
"快客便利店(no.6866)",31.194407,121.423587,"古井路30号(吴中路)","购物;便利店"
"旺仔便利店",31.193575,121.40251,"红松东路1088号(近虹桥元一希尔顿酒店)","购物;便利店"
"光明便利(安顺店)",31.206189,121.417455,"安顺路328号","购物;便利店"
"顺大百货商店",31.198023,121.425369,"上海市长宁区中山西路1434号-1","购物;便利店"
"快客便利店(no.5295)",31.197328,121.411895,"古羊路613号","购物;便利店"
"快客便利店(no.6704)",31.183306,121.414969,"虹漕路421号(虹漕路宜山路)","购物;便利店"
"雷虹日用品商店",31.203148,121.422278,"上海市长宁区中山西路1077-6-临","购物;便利店"
"快客便利店(no.006370)",31.18627,121.416175,"钦州北路1008-1号","购物;便利店"
"光明(古羊路店)",31.197087,121.414904,"上海市闵行区虹桥镇古羊路493号一层-1室","购物;便利店"
"良友金伴(虹桥新村店)",31.203881,121.418173,"虹桥路1027号(长顺路虹桥路)","购物;便利店"
"快客便利店(no.5225)",31.184557,121.403952,"虹梅路2971号附近","购物;便利店"
"虹桥镇伟民烟杂店",31.192058,121.418149,"上海市闵行区吴中路381-4号","购物;便利店"
"快客便利店(桂林路店)",31.182247,121.422282,"钦江路与桂林路交叉口南100米","购物;便利店"
"良友金伴便利店(内环高架路)",31.205093,121.419833,"上海市长宁区中山西路1030弄4-3号","购物;便利店"
"伊梨便利店",31.202388,121.424422,"上海市长宁区虹桥路963-3-临","购物;便利店"
"上虹超市公司分店",31.182601,121.4014,"上海市闵行区虹梅路2680-3号-临","购物;便利店"
"金甲便利店",31.20576,121.418767,"中山西路安顺路285号","购物;便利店"
"快客",31.199615,121.420065,"闵行区吴中路世纪华联超市旁","购物;便利店"
"万有全",31.201925,121.425395,"虹桥路1024弄4号家得利超市内","购物;便利店"
"诗琪杂货店",31.201844,121.420127,"宋园路16号106室","购物;便利店"
"恒硕便利店",31.188234,121.40197,"虹许路368号恒硕公寓酒店1层","购物;便利店"
"常顺综合商店",31.205479,121.423963,"长顺路57-1临","购物;便利店"
"林乐杂货店",31.201505,121.42556,"上海市长宁区虹桥路1010号附近","购物;便利店"
"沪泰便利店",31.198813,121.425696,"上海市长宁区中山西路1265弄-1-～38号","购物;便利店"
"邻邻便利(虹桥店)",31.205699,121.420649,"长宁区中山西路999号华闻国际716室内","购物;便利店"
"捷士便利店",31.195598,121.420162,"宋园路藏书羊肉旁","购物;便利店"
"孙记便民店",31.198743,121.424832,"中山西路1410-1附近","购物;便利店"
"金虹便利店",31.188767,121.406193,"吴中路598-1临","购物;便利店"
"尼口尼口(黄金城道店)",31.200511,121.410708,"黄金城道492号2楼","购物;集市"
"快来(城市生活古北店)",31.201006,121.409083,"黄金城道572号","购物"
"1004超市(黄金城道点店)",31.201429,121.406124,"黄金城道步行街728号","购物"
"1004邻",31.194134,121.40331,"上海市闵行区","购物"
"西充有机会(上海壹号馆)",31.200598,121.407983,"黄金城道625临","购物"
"上海徐汇区敏敏百货商店",31.182535,121.401428,"上海市闵行区虹梅路2680-1号-临","购物"
"虹桥铭伟百货店",31.197436,121.411099,"上海长宁区古羊路637号","购物"
"S岑经贸",31.205251,121.419499,"中山西路1030弄2-3临","购物"
"全家便利店(仙霞二店)",31.210831,121.412907,"仙霞路80号(娄山关路仙霞路)","购物;便利店"
"全家便利店(延安西路站店)",31.216386,121.423646,"三号线延安西路站编号:3-211","购物;便利店"
"罗森便利店(汇川路店)",31.222886,121.423551,"汇川路91-1","购物;便利店"
"罗森便利店(虹桥银城店)",31.207443,121.419805,"中山西路933号102室","购物;便利店"
"711便利店(凯旋店)",31.223755,121.422387,"轨道交通三号线中山公园站商场南侧3-108号(近长宁路)","购物;便利店"
"全家便利店(延安店)",31.207152,121.406249,"延安西路2299号02B79室(近古北路)","购物;便利店"
"罗森便利店(国贸中心店)",31.208212,121.410282,"延安西路2201号上海国际贸易中心1层(近娄山关路)","购物;便利店"
"天天便利店",31.215126,121.419833,"天山路","购物;便利店"
"全家便利店(长宁三店)",31.223488,121.421972,"地铁三号线中山公园站ZS201商铺","购物;便利店"
"罗森便利店(仙霞路店)",31.211919,121.410057,"上海长宁区娄山关路75-83号新虹桥中心大厦1层","购物;便利店"
"711便利店(百盛店)",31.216859,121.409311,"长宁区天山路789号百盛购物中心内(近娄山关路)","购物;便利店"
"711便利店(远东广场店)",31.21214,121.408425,"上海市长宁区仙霞路299号远东国际广场b栋2层213~215室","购物;便利店"
"全家便利店(汇川一店)",31.222778,121.424044,"汇川路72号","购物;便利店"
"711便利店(NO.2)",31.216752,121.411223,"天山路919号B1层","购物;便利店"
"全家便利店(玉屏南路店)",31.21975,121.410649,"玉屏南路537弄11号-21楼(近娄山关路)","购物;便利店"
"全家便利店(汇川二店)",31.221391,121.423897,"上海市长宁区汇川路6号","购物;便利店"
"罗森便利店(虹桥上海城店)",31.209918,121.416382,"兴义路8号万都中心大厦底楼B-101(近遵义路)","购物;便利店"
"全家便利店(天山二村)",31.216894,121.414137,"天山路1652号","购物;便利店"
"全家便利店(古北路三店)",31.21485,121.407396,"古北路505号(近永乐古北店)","购物;便利店"
"全家便利店(古北路二店)",31.215867,121.406933,"上海市长宁区古北路442号","购物;便利店"
"全家便利店(长宁店)",31.224196,121.421174,"长宁区长宁路1156号(近圣约翰名邸)","购物;便利店"
"全家便利店(茅台店)",31.215697,121.403379,"茅台路340号","购物;便利店"
"喜士多便利店(茅台路店)",31.215819,121.40686,"茅台路218号(报刊亭附近，古北路茅台路)","购物;便利店"
"快客便利店(no.955)",31.22317,121.41953,"长宁区长宁路1253、1255号(宁康路)","购物;便利店"
"全家便利店(天山支路店)",31.221032,121.405765,"天山支路16号(近古北路)","购物;便利店"
"好德便利(遵义店)",31.216862,121.4144,"遵义路398号(天山路遵义路)","购物;便利店"
"罗森便利店(南京西路店)",31.214271,121.425118,"长宁区延安西路1628号(娄山关路延安西路)","购物;便利店"
"喜士多便利店(新虹桥门市)",31.219084,121.403631,"长宁区天山路600弄2号捷运大厦内（近芙蓉江路）","购物;便利店"
"全家便利店(仙霞店)",31.211521,121.40487,"仙霞路322号(古北路仙霞路)","购物;便利店"
"可的便利店(仲盛店)",31.210118,121.414793,"延安西路2067号仲盛金融中心内","购物;便利店"
"好德便利(安凯店)",31.206828,121.422721,"长宁区安顺路217号","购物;便利店"
"良友金伴便利店(安顺路)",31.206517,121.421786,"安顺路241号(安顺路杨宅路)","购物;便利店"
"喜士多便利店(天山路店)",31.217665,121.407789,"天山路762号泓鑫时尚广场1楼21室","购物;便利店"
"可的便利店(NO.342)",31.217566,121.414571,"遵义路410号(天山路遵义路)","购物;便利店"
"好德(紫宁店)",31.213916,121.417658,"中山西路800号甲(近紫云路)","购物;便利店"
"好德便利(中天店)",31.215218,121.41838,"长宁区天山路1855号（天山路中山西路）","购物;便利店"
"好德便利(紫云店)",31.212071,121.414944,"紫云路63号","购物;便利店"
"罗森火影忍者主题店(天山路店)",31.217456,121.40895,"天山路762号泓鑫时尚广场1楼33室(近娄山关路)","购物;便利店"
"可的便利店(延安店)",31.213474,121.421394,"延安西路1796号","购物;便利店"
"可的便利店(NO.064)",31.21983,121.406561,"长宁区古北路浙商银行对面","购物;便利店"
"好德便利（古北店）",31.215786,121.406447,"茅台路232号（古北路茅台路）","购物;便利店"
"兴达百货商店(汇川路店)",31.22601,121.42213,"汇川路464临","购物;便利店"
"长风公园小卖部",31.229183,121.404858,"银锄湖附近","购物;便利店"
"全家便利店(大渡河路NO.4)",31.227238,121.401834,"大渡河路168弄31号1层","购物;便利店"
"可的便利店(NO.844)",31.213826,121.401763,"芙蓉江路108-1","购物;便利店"
"可的便利店(武夷店)",31.219086,121.422493,"武夷路723-1临","购物;便利店"
"可的便利店(雍景店)",31.220343,121.40372,"天山支路130-132号","购物;便利店"
"可的便利店(长遵店)",31.221194,121.414992,"遵义路725号(云雾山路遵义路)","购物;便利店"
"711便利店(雅仕店)",31.221723,121.422518,"凯旋路369号龙之梦雅仕大厦101室","购物;便利店"
"好德便利(娄山店)",31.221942,121.411719,"娄山关路980号(近长宁路)","购物;便利店"
"快客便利店(no.1238)",31.213347,121.416846,"紫云路313号","购物;便利店"
"兴达小商品总汇",31.20692,121.422989,"安顺路207临","购物;便利店"
"可的便利店(玉娄店)",31.219866,121.41088,"长宁区玉屏南路503号（娄山关路玉屏南路）","购物;便利店"
"红霞日用百货商店",31.215754,121.40562,"上海市长宁区茅台路258号-2","购物;便利店"
"好德便利(法华店)",31.213812,121.425707,"长宁区法华镇路885号(杨宅路种德桥路)","购物;便利店"
"良友(茅台一店)",31.2157,121.402723,"茅台路370号（芙蓉江路茅台路）","购物;便利店"
"良友(武夷二店)",31.218609,121.42091,"武夷路778号(武夷路中山西路)","购物;便利店"
"好德便利(玉屏南路店)",31.218317,121.41887,"玉屏南路1甲","购物;便利店"
"纯琴烟杂店",31.218585,121.416154,"玉屏南路197-1临","购物;便利店"
"罗森便利店(万都中心店)",31.210535,121.411499,"兴义路8号万都中心1层s101(喜来登太平洋饭店)","购物;便利店"
"wotsons",31.229259,121.402412,"上海市普陀区大渡河路178号长风景畔广场1层","购物;便利店"
"海客乐",31.220067,121.418782,"上海市长宁区中山西路517号","购物;便利店"
"快客便利店(no.6753)",31.213198,121.420574,"天山街道延安西路1882号-4(娄山关路)","购物;便利店"
"良友(娄山关店)",31.211968,121.409469,"仙霞路179号","购物;便利店"
"天诺杂货店",31.220242,121.403418,"上海市长宁区天山支路164号","购物;便利店"
"罗森便利店(东方维京店)",31.212351,121.404927,"仙霞路333号106室(维京大厦1楼)(古北路仙霞路)","购物;便利店"
"好德便利(锦屏店)",31.220848,121.408174,"锦屏路4号(锦屏路玉屏南路)","购物;便利店"
"好德",31.219537,121.402585,"天山支路209号107号铺位","购物;便利店"
"快客龙便利店",31.213455,121.417967,"上海市长宁区中山西路800弄-14号-1","购物;便利店"
"良友便利店",31.219324,121.410955,"玉屏南路314号(玉屏南路与遵义路交叉口处)","购物;便利店"
"芙一食品店",31.214582,121.40178,"茅台路455弄5-1号","购物;便利店"
"快客便利店(凯旋店)",31.21912,121.423827,"武夷路651","购物;便利店"
"好德便利店",31.220931,121.405356,"天山支路40号","购物;便利店"
"便民烟杂店",31.226749,121.421503,"凯旋路134号","购物;便利店"
"立新杂货店",31.220849,121.41721,"中山西路430号2401室","购物;便利店"
"易捷便利店(武夷路店)",31.21882,121.42495,"武夷路562号(近凯旋路)","购物;便利店"
"良友长宁店",31.22331,121.414286,"万航渡路2520、2524-2526","购物;便利店"
"良友(玉屏南一店)",31.219062,121.414363,"玉屏南路152-4号(锦屏公寓北)","购物;便利店"
"好德便利(遵二店)",31.219946,121.415081,"遵义路570号(云雾山路遵义路)","购物;便利店"
"迪亚天天no.9200",31.215405,121.402384,"茅台路与芙蓉江路交叉口东北角","购物;便利店"
"良友金伴(天山店)",31.216576,121.414666,"天山路1652号","购物;便利店"
"快客便利店(遵义路)",31.223249,121.414714,"长宁路1576号（长宁路遵义路）","购物;便利店"
"可的便利店(协泰店)",31.210286,121.412614,"遵义南路88号协泰中心1层107室(兴义路遵义南路)","购物;便利店"
"良友金伴(万航渡店)",31.225686,121.412397,"万航渡路2520号","购物;便利店"
"国印百货商行",31.213981,121.422954,"上海市长宁区延安西路1740弄-1-26号","购物;便利店"
"良友金伴（茅台店）",31.215783,121.406159,"茅台路242号（古北路茅台路）","购物;便利店"
"t群杂货店",31.226402,121.42006,"长安路1302弄宁康小区附近","购物;便利店"
"光明便利(光复西店)",31.227952,121.413285,"光复西路2147号黎金苑1楼","购物;便利店"
"快客便利店(花城店)",31.224471,121.410271,"长宁路1820-1号","购物;便利店"
"花顺泰烟杂店",31.218824,121.42296,"武夷路698号","购物;便利店"
"利嘉宾馆小卖部",31.212444,121.406385,"古北路628号利嘉宾馆1楼（近仙霞路）","购物;便利店"
"美天康宁经营部",31.211983,121.415082,"上海市长宁区紫云路63-1号-临","购物;便利店"
"阿明食品(汇金百货娄山关路)",31.217347,121.411492,"天山路900号B2层","购物;便利店"
"小树便利店",31.206598,121.415346,"上海市长宁区伊犁路134弄-26号-1楼-101室","购物;便利店"
"金鸿食品店",31.22039,121.410025,"上海市长宁区玉屏南路518-3号-临","购物;便利店"
"龙妹便利",31.213485,121.417604,"上海市长宁区中山西路800弄14号102","购物;便利店"
"吕静杂货店",31.220739,121.408366,"上海市长宁区玉屏南路598号","购物;便利店"
"Hi Mart",31.226401,121.422612,"凯旋路166号凯旋坊2号楼1楼B座(近汇川路)","购物;便利店"
"志刚便利店",31.219796,121.418829,"中山西路513-515附近","购物;便利店"
"呈禾食品",31.220943,121.405491,"天山支路18-1","购物;便利店"
"长生杂货商店",31.230545,121.425705,"上海市长宁区万航渡路1513号-临","购物;便利店"
"盛达烟杂百货店",31.209979,121.424396,"凯旋路杨宅路路口附近","购物;便利店"
"长风公园-售品部",31.22936,121.406447,"上海市普陀区","购物;便利店"
"海城杂货店",31.213819,121.424932,"法华镇路922","购物;便利店"
"鸿顺便利店",31.22726,121.406486,"上海市普陀区大渡河路71号","购物;便利店"
"天华食品经营部",31.219186,121.413577,"玉屏南路360号","购物;便利店"
"久壹品农副产品",31.217906,121.410849,"楼山关路755号2楼","购物;便利店"
"小何便利店",31.220784,121.414136,"云雾山路鑫瑞电脑旁","购物;便利店"
"东方便利店(No.003)",31.226068,121.422353,"汇川路400弄999支弄3-12号","购物;便利店"
"蓉记杂货店",31.207835,121.422976,"上海市长宁区杨宅路290号","购物;便利店"
"伟岸便利商店",31.230155,121.425674,"长宁区万航渡路1540临","购物;便利店"
"良友金伴(玉屏南店)",31.218824,121.416797,"玉屏南路130号(玉屏南路遵义路)","购物;便利店"
"蓝夏便利店",31.217728,121.408524,"上海市长宁区天山路762号泓鑫时尚广场1层","购物;便利店"
"杨记便利店",31.214253,121.424292,"上海市长宁区延安西路1672号200050","购物;便利店"
"康可食品销售",31.226599,121.412586,"万航渡路2452号B302","购物;便利店"
"庆凤便利",31.218225,121.414429,"遵义路521-2临","购物;便利店"
"长兴食品店",31.22726,121.4063,"大渡河路91号","购物;便利店"
"可的(天二店)",31.214765,121.419455,"天山路1873号(天山路中山西路)","购物;便利店"
"遵中便利店",31.221332,121.416806,"中山西路430号长宁区虹城幼儿园附近","购物;便利店"
"喜多多便利店",31.218452,121.417624,"上海市长宁区玉屏南路37-2号","购物;便利店"
"庆风烟杂店",31.218661,121.415377,"上海市长宁区玉屏南路172弄-3号","购物;便利店"
"小李便利店",31.206843,121.414083,"安顺路与伊犁路交叉口旁","购物;便利店"
"好德",31.213903,121.417716,"上海市长宁区中山西路800弄-52-甲","购物;便利店"
"Seven Days(龙之梦店)",31.225185,121.423085,"长宁路1018号龙之梦购物中心2楼2203室(长宁路凯旋路)","购物;便利店"
"新快(虹桥店)",31.209464,121.413558,"上海市长宁区遵义南路6号友谊商城(仙霞路)B1层","购物;便利店"
"APITA雅品嘉(金虹桥店)",31.21538,121.408364,"长宁区茅台路179号ARCHWALK金光绿庭广场地下一层/二层(2号线地铁娄山关路，公交69、158、309、944均可到达)","购物"
"延西油酱杂品商店",31.213856,121.422567,"延安西路1746-3号","购物;商铺"
"小夏百货",31.21442,121.415921,"紫云路361-1","购物"
"里德有机生活食品店",31.220662,121.404541,"上海长宁区天山支路112号(近芙蓉江路)","购物"
"罗蒙",31.210638,121.408991,"万山路108号-3312室","购物"
"24HRS(虹桥友谊商城)",31.210412,121.413807,"遵义南路6号虹桥友谊商城3F","购物"
"便民百货超市",31.226294,121.412497,"上海市长宁区万航渡路2452号A201室","购物"
"lucky seven进口超市",31.22524,121.425504,"长宁路890号玫瑰坊1楼777号(必胜客后排)","购物"
"美食美客",31.219701,121.403432,"天山支路600弄4号思创大厦东楼1层","购物"
"快来(华雄食品店)",31.22721,121.407335,"上海市长宁区万航渡路2452号A201室","购物"
"小高百货",31.215853,121.404113,"茅台路310号","购物"
"都市文驿",31.215361,121.423469,"上海市长宁区凯旋路815号-临","购物"
"citydia",31.215691,121.416652,"天山路厚春杂货店斜对面","购物"
"尚优玛特(东方现代广场店)",31.212028,121.403927,"晨阳路东方现代广场B1楼(南航明珠大酒店旁)","购物"
"利荣食品店",31.224431,121.422187,"徐汇区凯旋路199号","购物"
"光枣食品店",31.226908,121.409531,"上海市普陀区光复西路2321号","购物"
"江澜百货店",31.214101,121.410415,"娄山关路468-2号","购物"
"全家便利店(宁夏路店)",31.23691,121.41991,"宁夏路679号","购物;便利店"
"喜士多便利店(武宁路店)",31.250195,121.421858,"武宁路503号01室(东新路武宁路)","购物;便利店"
"全家便利店(曹杨路三店)",31.247244,121.418423,"曹杨路867号(近枫桥路)","购物;便利店"
"全家便利店(曹杨路六店)",31.243696,121.424117,"曹杨路595号底层101室","购物;便利店"
"全家便利店(梅川路店)",31.244452,121.407372,"梅川路149号105室(近杨柳青路)","购物;便利店"
"好德便利(宁泉店)",31.253463,121.424026,"石泉路446号","购物;便利店"
"快客便利店(兰溪店)",31.245883,121.410675,"兰溪路147号-3室","购物;便利店"
"全家便利店(枣阳路店)",31.237369,121.408631,"枣阳路386号(近金沙江路)","购物;便利店"
"全家便利店(曹杨路五店)",31.248884,121.416725,"曹杨路930号汇尚商务楼1层A101-103","购物;便利店"
"全家便利店(兰溪路店)",31.253428,121.408472,"兰溪路243号","购物;便利店"
"喜士多便利店(梅岭北店)",31.248376,121.411175,"普陀区梅岭北路460号(近区中心医院)","购物;便利店"
"好德便利店",31.235865,121.419664,"上海市普陀区凯旋北路1555弄-52号-602室","购物;便利店"
"迪亚天天(梅岭店)",31.239855,121.414649,"梅岭南路199号","购物;便利店"
"喜士多便利店(中山北店)",31.234219,121.41717,"中山北路3680号（光新路中山北路）","购物;便利店"
"迪亚天天(真如店)",31.254385,121.407392,"普陀区北石路149号（北石路寺前街）","购物;便利店"
"全家便利店(大渡河路店)",31.252079,121.40405,"大渡河路1600号久良财富休闲广场1层","购物;便利店"
"好德便利(金江店)",31.237159,121.415186,"金沙江路69号","购物;便利店"
"好德便利(梅岭南路店)",31.240151,121.415355,"梅岭南路229号","购物;便利店"
"实惠便利店",31.246259,121.402004,"梅岭北路1101弄44号(大渡河路)","购物;便利店"
"良友NO.370",31.24411,121.41028,"杏山路565-2号","购物;便利店"
"可的便利店(中二店)",31.234526,121.417146,"中山北路3670号(华东师大正门对面)","购物;便利店"
"好德(梅岭店)",31.248116,121.410385,"梅岭北路12号(梅岭北路梅岭南路)","购物;便利店"
"环客便利店",31.23301,121.417882,"中山北路3856弄1～4号中环大厦1层","购物;便利店"
"罗森便利店(金沙江路一店)",31.237671,121.408786,"金沙江路378号(金沙江路杨柳青路)","购物;便利店"
"好德便利(川溪店)",31.246363,121.40957,"梅川路25号(兰溪路梅川路)","购物;便利店"
"好德便利（梅岭南路店）",31.23921,121.415266,"梅岭南路与杏山路交叉口东(梅岭南路杏山路)","购物;便利店"
"良友金伴便利店(真如西村店)",31.252259,121.40652,"武宁路2108号(真如西村小区东北)","购物;便利店"
"好德便利(兰溪店)",31.253559,121.408848,"兰溪路290丁号","购物;便利店"
"罗森便利店(伸大厦店)",31.235251,121.415863,"中山北路3553号伸大厦1层129室(近华师大)","购物;便利店"
"好德便利(凯北店)",31.234239,121.418897,"凯旋北路1607-1609号","购物;便利店"
"良友（曹杨九村店）",31.238825,121.411306,"梅岭南路曹杨九村北区9幢底商","购物;便利店"
"罗森便利店(中山北路二店)",31.24687,121.423244,"中山北路2911号中关村科技大厦1层","购物;便利店"
"良友(怒江店)",31.234366,121.403518,"怒江路29号(近大渡河路)","购物;便利店"
"好德便利(师大店)",31.234581,121.41638,"普陀区中山北路1958商务中心附近(光新路中山北路)","购物;便利店"
"快客便利店(no.5346)",31.242536,121.420797,"中山北路3058号c","购物;便利店"
"可的便利店(怒江店)",31.238557,121.405693,"怒江路360号乙(泸定路怒江北路)","购物;便利店"
"快客便利店(师大店)",31.231837,121.415524,"中山北路3671弄1～633号华东师大一村","购物;便利店"
"上海普陀区庆奥祥食品商行",31.244406,121.410299,"杏山路566号","购物;便利店"
"可的便利店(梅岭店)",31.24249,121.416309,"梅岭南路383号(李村路梅岭南路)","购物;便利店"
"易捷便利店(内环高架路出口店)",31.245457,121.423046,"上海市普陀区中山北路2932号-1","购物;便利店"
"快客便利店(枫桥店)",31.247435,121.415917,"普陀区武宁路2097-1号","购物;便利店"
"可的便利店(曹杨店)",31.244838,121.421473,"中山北路3015号(光新路中山北路)","购物;便利店"
"快客便利店(真如店)",31.252099,121.40893,"兰溪路232号(兰溪路南石二路)","购物;便利店"
"迪亚天天(no.59181)",31.248529,121.41456,"梅岭北路与棠浦路交叉口北(近棠浦路)","购物;便利店"
"曹阳花卉市场便利店",31.25139,121.417955,"武宁路1005-1","购物;便利店"
"迪亚天天便利店(NO.5952店)",31.240069,121.425105,"普陀区宁夏路312弄1号201室","购物;便利店"
"好德便利(杨柳店)",31.242695,121.407929,"杨柳青路301号(桂巷路杨柳青路)","购物;便利店"
"易捷便利店(明海店)",31.237675,121.416599,"杏山路5号(近内环高架)","购物;便利店"
"真如食品店",31.247575,121.407982,"梅岭北路638号","购物;便利店"
"迪亚天天(梅川店)",31.244806,121.404016,"普陀区梅川路295-297号","购物;便利店"
"快客便利店(普医店)",31.248298,121.410972,"梅岭北路480号底层西面第一间(近花溪路)","购物;便利店"
"时代光明便利店",31.235156,121.418628,"凯旋北路1600-13临","购物;便利店"
"快客便利店(no.5013)",31.250761,121.415858,"曹杨路1040弄2号","购物;便利店"
"好德便利店(兰岭店)",31.244742,121.416468,"梅岭北路12-2","购物;便利店"
"可的便利店(南石店)",31.254658,121.414212,"曹杨路1269号(曹杨路南石四路)","购物;便利店"
"快客便利店(no.5440)",31.252545,121.404485,"真如西村138号(真如西村小区西)","购物;便利店"
"来伊份(华联商厦普陀店)",31.239219,121.405582,"金沙江路788号F1层","购物;便利店"
"普陀区永忆便利店",31.249295,121.424656,"上海市普陀区武宁路492弄30号","购物;便利店"
"汉浦香烟冷饮店",31.245529,121.408567,"梅川路91号","购物;便利店"
"快客便利店(no.5391)",31.240423,121.417464,"梅岭支路19号(上海之春公寓西)","购物;便利店"
"良友金伴便利店(宁夏路)",31.239002,121.423316,"白玉新村330号","购物;便利店"
"多购便利连锁(金沙江店)",31.237547,121.415584,"上海市普陀区金沙江路53号","购物;便利店"
"可的便利店(大渡河路NO.2)",31.236907,121.402536,"金沙江路与大渡河路交叉口旁(近金沙江路)","购物;便利店"
"通源综合商店",31.238556,121.415524,"杏山路37号","购物;便利店"
"快客便利店(中桥大楼西北)",31.24824,121.417798,"曹杨路916号(曹杨路枫桥路)","购物;便利店"
"1号便利店",31.249972,121.416029,"上海市普陀区","购物;便利店"
"良友(梅岭北店)",31.246158,121.402559,"梅岭北路1101弄47号","购物;便利店"
"小霞便利店",31.241596,121.402013,"上海市普陀区怒江北路212-、214号","购物;便利店"
"南石商行",31.254622,121.413924,"南石四路15","购物;便利店"
"光明便利(No.1008)",31.24261,121.421046,"上海市普陀区白兰路150号","购物;便利店"
"喜士多便利店(国盛店)",31.235264,121.402694,"中江路国盛中心2号楼1楼","购物;便利店"
"快客便利店(北苑店)",31.254374,121.408011,"兰溪路399真如寺附近","购物;便利店"
"快客便利店(no.5106)",31.242844,121.411047,"枣阳路149号","购物;便利店"
"光明新鲜屋",31.251078,121.410536,"上海市普陀区南石二路78号","购物;便利店"
"可的便利店(兰溪路)",31.245333,121.420109,"兰溪路与曹杨路交叉口西","购物;便利店"
"光明便利(曹杨店)",31.24713,121.419432,"曹杨路770号","购物;便利店"
"快客便利店(普政店)",31.255167,121.403569,"铜川路1321号底层101室（大渡河路1668号）","购物;便利店"
"凯文便利",31.238898,121.403001,"大渡河路831号","购物;便利店"
"昌华商店",31.255526,121.412032,"上海市普陀区北石路52号","购物;便利店"
"汇众切面店",31.244833,121.416468,"梅岭北路12-6号","购物;便利店"
"快客便利店(no.5415)",31.244993,121.407928,"梅川路台湾面馆旁(杏园西北)","购物;便利店"
"玲玲百货",31.241553,121.421153,"凯旋北路1101临","购物;便利店"
"金石湾便利店",31.235619,121.421363,"康泰棋牌活动室西侧","购物;便利店"
"荣芳杂货店(怒江路)",31.242578,121.404604,"上海市普陀区怒江路651弄-1-～26号","购物;便利店"
"诗涵便利店",31.241274,121.402283,"大渡河路与怒江北路交叉口旁","购物;便利店"
"诗丰便利店",31.25027,121.406807,"上海市普陀区武宁路2101号-5楼-519室","购物;便利店"
"鸿新食品店",31.251877,121.419643,"中宁路236号(近武宁路)","购物;便利店"
"正杰便利店",31.250649,121.420485,"电科大厦内上海市普陀区武宁路507号","购物;便利店"
"帮帮便利店",31.238642,121.423884,"白玉路331临","购物;便利店"
"快捷便利店曹杨店",31.244998,121.423124,"曹杨路谈家渡路公交站","购物;便利店"
"业兴便利店",31.241321,121.417021,"梅岭支路95-1西北牛肉拉面(梅岭支路)附近","购物;便利店"
"百姓便利店",31.234852,121.418572,"凯旋北路1600-13附近","购物;便利店"
"咏梅便利店",31.234501,121.404946,"怒江路58号","购物;便利店"
"统一便利(铜川店)",31.2556,121.412231,"北石路53号","购物;便利店"
"阿施便利店",31.247496,121.4047,"梅岭北路伍缘折扣对面","购物;便利店"
"俞真经营部",31.247536,121.403999,"梅岭北路1022号","购物;便利店"
"海城便利店",31.24152,121.42184,"白兰路70临","购物;便利店"
"保金便利店",31.241457,121.421972,"白玉路白兰路72号","购物;便利店"
"强顺商店",31.246025,121.409161,"梅川路43弄3幢7-10号","购物;便利店"
"上海爱雯群杂货商店",31.248836,121.41349,"梅岭北路308-2号","购物;便利店"
"好客便利店",31.235785,121.417037,"上海市普陀区中山北路3636-6-临","购物;便利店"
"伟勇百货店",31.240388,121.415961,"梅岭南路231号","购物;便利店"
"浦记便利店",31.244408,121.40273,"梅川路与大渡河路交叉口旁","购物;便利店"
"小小便利店",31.237553,121.412788,"枣阳路中国农业银行旁","购物;便利店"
"为庆便利店",31.239202,121.408487,"上海市普陀区枣阳路301号","购物;便利店"
"达申综合经营部",31.240101,121.415276,"梅岭南路223号","购物;便利店"
"和星烟草百货",31.237335,121.401771,"上海市普陀区金沙江路881号","购物"
"维迈(上海市凯旋北路店)",31.235813,121.419714,"上海市普陀区凯旋北路1309号","购物"
"ZCG生活广场",31.246547,121.422297,"曹杨路710弄26","休闲娱乐;休闲广场"
"诚信百货",31.234887,121.425875,"白玉路589","购物"
"丰余杂货店",31.236445,121.405794,"怒江路262号","购物"
"丽娃综合商场",31.234874,121.41015,"中山北路3663号华东师范大学中山北路校区内","购物"
"伍缘（普陀店）",31.254518,121.412589,"武宁路955弄34号(上海星港二期西)","购物"
"者仪杂货店",31.254733,121.413436,"南石一路与南石四路交叉口东南角","购物"
"社区便利",31.241928,121.421575,"白兰路135弄附近","购物"
"宽宽百货",31.254448,121.412132,"上海市普陀区南石四路102号","购物"
"跃林百货店",31.254623,121.412918,"上海市普陀区南石四路66号","购物"
"金渡食品店",31.237558,121.40577,"怒江路294号","购物"
"真岭食品(合兴店)",31.25075,121.405296,"武宁路2168-2号","购物"
"日用百货店",31.235501,121.405899,"金沙江路616号","购物"
"沪林百货店",31.254764,121.413221,"南石四路与曹杨路交叉口西50米","购物"
"魔果超市",31.248317,121.404553,"梅岭北路992弄22号","购物"
"尚食品",31.245383,121.420192,"兰溪路17号(近曹杨路)","购物"
"好运百货店",31.254646,121.413008,"南石四路54","购物"
"汇福粮油食品商店",31.238668,121.40571,"怒江路364号","购物"
"全家便利店(桃浦路店)",31.266261,121.401873,"桃浦路300弄(近真北支路)","购物;便利店"
"罗森便利店(大渡河路店)",31.257745,121.403776,"大渡河路1860号保龄球馆内","购物;便利店"
"快客便利店(大华店)",31.278593,121.422151,"大华二路38/40号底层","购物;便利店"
"迪亚天天(西站店)",31.267548,121.40943,"桃浦路17号","购物;便利店"
"快客便利店(no.6820)",31.272031,121.42351,"宝山区新村路791号","购物;便利店"
"光明便利店",31.276957,121.419764,"大华路518号B32～B34","购物;便利店"
"快客便利店(no.5358)",31.26182,121.424536,"府村路115弄10号101-1室","购物;便利店"
"好德便利店(三源店)",31.266341,121.412425,"上海市普陀区三源路92号","购物;便利店"
"良友(大渡河路店)",31.265886,121.404592,"大渡河路2020","购物;便利店"
"缤缤便利店",31.269898,121.419507,"上海市普陀区香泉路125号","购物;便利店"
"好德便利(西站店)",31.267529,121.409572,"普陀区曹杨路2341号(曹杨路桃浦路)","购物;便利店"
"快客便利店(桃浦路)",31.267339,121.408442,"桃浦路91号(车站新村小区北)","购物;便利店"
"快客便利店(no.5409)",31.263678,121.410789,"芝川路31号","购物;便利店"
"快客便利店(no.5025)",31.272023,121.410971,"上海市普陀区富平路849号","购物;便利店"
"良友金伴便利店(铜川店)",31.2588,121.42057,"铜川路354号(静宁路铜川路)","购物;便利店"
"快客便利店(万里店)",31.273687,121.412293,"上海市普陀区真金路250弄14底层","购物;便利店"
"全佳便利店",31.264796,121.422622,"上海市普陀区府村路293号","购物;便利店"
"光明便利(新沪路店)",31.277475,121.424969,"新沪路689号(大华二路新沪路)","购物;便利店"
"风之笛便利",31.260314,121.412485,"曹杨路1619号","购物;便利店"
"快客便利店(no.6655)",31.256793,121.40555,"铜川路1180-1号","购物;便利店"
"光明便利(大华二路店)",31.279238,121.419194,"大华路与大华二路交叉口李宁旁(大华・铂金华府南)","购物;便利店"
"可德便利店",31.27165,121.425741,"新村路681-6号","购物;便利店"
"可的便利店(桃大店)",31.265222,121.40281,"大渡河路2126号(大渡河路桃浦路)","购物;便利店"
"快客便利店(no.5017)",31.273007,121.408949,"水泉路竹寿司对面","购物;便利店"
"快客便利店(no.5431)",31.266104,121.401582,"桃浦路328号1楼-1号","购物;便利店"
"日用品店",31.266422,121.411374,"上海市普陀区三源路145号","购物;便利店"
"快客便利店(no.5500)",31.272028,121.425641,"新村路681-9","购物;便利店"
"翡翠便利",31.26088,121.411748,"固川路25号","购物;便利店"
"永金便利店",31.26194,121.424486,"府村路121号","购物;便利店"
"迪亚天天(芝川店)",31.263403,121.409218,"芝川路113-119号","购物;便利店"
"快客便利店(no.6691)",31.257778,121.409402,"上海市普陀区铜川路990弄-4区-26号","购物;便利店"
"烨烨便利店",31.272308,121.419648,"新村路1360号(近真华路)","购物;便利店"
"普陀区快乐综合经营部",31.266512,121.406317,"桃浦路嘉发公寓","购物;便利店"
"优の良品(巴黎春天宝山店)",31.276666,121.417965,"真华路888号B1层","购物;便利店"
"福康食品店",31.273568,121.402934,"真南路185号(金鼎公寓2号门)","购物;便利店"
"兰草烟杂店",31.27341,121.403013,"真南路175号","购物;便利店"
"喜多便利店(富水店)",31.279702,121.417283,"真华路959临","购物;便利店"
"快客便利店(no.5160)",31.265296,121.40108,"上海市普陀区桃浦路313号","购物;便利店"
"喜多便利店",31.279782,121.417351,"上海市宝山区","购物;便利店"
"百乐食品商店",31.26731,121.408442,"桃浦路93号(车站新村小区北)","购物;便利店"
"新村便利店",31.272327,121.421409,"大华路与新村路交叉口西","购物;便利店"
"好盛便利店",31.25957,121.424996,"铜川路285-2号","购物;便利店"
"永灵综合商店",31.280977,121.421263,"大华路833临","购物;便利店"
"南国便利店",31.266876,121.405271,"兰溪路1646号","购物;便利店"
"小刘烟杂店",31.266426,121.411593,"三源路100号附近","购物;便利店"
"捷强连锁(芝川店)",31.263865,121.411195,"芝川路1号","购物;商铺"
"富香食品店",31.269544,121.419382,"香泉路99号","美食"
"建顺百货",31.265423,121.420869,"府村路255之15-17","购物"
"新疆特产",31.27698,121.425561,"大场镇新沪路453号","购物"
"上海英成贸易商行",31.27368,121.402892,"真南路189号(金鼎公寓2号门)","购物"
"全家便利店(武威店)",31.282345,121.412664,"武威东路262号(武威东路真金路)","购物;便利店"
"全家便利店(武威东路NO.02店)",31.281783,121.407589,"武威东路491号","购物;便利店"
"罗森便利店(大华路店)",31.291044,121.422839,"行知路415号(铭品外贸鞋服旁)","购物;便利店"
"喜士多便利店(行知店)",31.289228,121.414004,"行知路729号（行知路真金路）","购物;便利店"
"罗森便利店(真金路店)",31.289126,121.41284,"真金路1037号(近尚品鲜)","购物;便利店"
"可的便利店(华灵店)",31.285334,121.415915,"华灵路1786临","购物;便利店"
"好德便利(真华店)",31.289409,121.416138,"行知路627号(行知路真华路)","购物;便利店"
"好德便利(金鑫店)",31.285445,121.410671,"宝山华灵路1908号","购物;便利店"
"快客便利店(真华路店)",31.291226,121.417498,"真华路1567号(安程电器维修公司南隔壁)","购物;便利店"
"快客便利店(no.1267)",31.28936,121.416827,"行知路595号(行知路真华路)","购物;便利店"
"易捷便利店(科技大场文盛楼东南)",31.298149,121.423059,"沪太路1880","购物;便利店"
"迪亚天天(真北店)",31.292694,121.410311,"上海市宝山区真北路3777号4号门(近汶水路)","购物;便利店"
"罗森便利店(华和路店)",31.297014,121.411207,"华和路２４６号１层","购物;便利店"
"大场日杂用品批发零售",31.305943,121.423489,"沪太支路1388号","购物;便利店"
"红霞文具",31.305645,121.409767,"南大路147弄7号","购物;便利店"
"迪亚天天(真金店)",31.289521,121.412591,"真金路1041","购物;便利店"
"迪亚天天(华和店)",31.297066,121.412772,"宝山区华和路224号(近真北路)","购物;便利店"
"迪亚天天(真华店)",31.294677,121.418117,"真华路1786号(近汶水路)","购物;便利店"
"点瑞冻品",31.282204,121.40241,"真北路3271弄武威东路","购物;便利店"
"ok便利店",31.282224,121.401312,"真北路武威东路3271弄","购物;便利店"
"联玺综合经营部",31.282337,121.419282,"大华三路481-1临","购物;超市"
"光明随心订",31.282342,121.419867,"大华三路459-2号","购物;便利店"
"快客便利店(no.6642)",31.306047,121.424733,"沪太支路(守仁桥街)","购物;便利店"
"快客便利店(no.6185)",31.289981,121.421557,"上海市宝山区行知路384号","购物;便利店"
"易捷便利店(复地太阳城东)",31.28708,121.408133,"真北路3638号(复地太阳城东)","购物;便利店"
"英英烟杂店",31.305994,121.424424,"沪太支路1352号","购物;便利店"
"伍缘便利店",31.289449,121.416699,"行知路与真华路交叉口旁(近真华路)","购物;便利店"
"快客便利店(复地太阳城东)",31.289509,121.411074,"真金路1039弄49号101室","购物;便利店"
"大场镇宝良杂货商店",31.305618,121.409706,"宝山区大场镇南大路126弄1号","购物;便利店"
"陆华商行(大华路店)",31.281406,121.421282,"大华路905号","购物;便利店"
"红霞日杂劳防商店",31.305828,121.417671,"南大路8弄6号","购物;便利店"
"华兰食品商店",31.295646,121.419041,"真华路1800弄52号","购物;便利店"
"晓勤杂货店",31.300265,121.411734,"真大路454号","购物;便利店"
"捷强连锁no.356",31.297007,121.410838,"华和路262号","购物;便利店"
"大众便利店",31.281901,121.424766,"上海市宝山区大华三路81-2号-临","购物;便利店"
"联客真金店",31.288552,121.413188,"上海市宝山区真金路1108号-2楼","购物;便利店"
"上海宝山区周一大便利店",31.293005,121.417981,"上海市宝山区真华路1604号-临","购物;便利店"
"长宗食品店",31.285841,121.421469,"华灵路1351弄-50号","购物;便利店"
"宝汇商场第三经营部",31.285895,121.424144,"上海市宝山区华灵路","购物;便利店"
"福乐迪便利店",31.286292,121.409208,"华灵路雨昕茶室旁","购物;便利店"
"行知便利店",31.290357,121.42473,"上海市宝山区行知路147号","购物;便利店"
"英英易购便利店",31.305725,121.414901,"南大路16弄2-2临","购物;便利店"
"洋洋便利店",31.285941,121.409193,"上海市宝山区华灵路1952号","购物;便利店"
"易捷便利店(南祁路)",31.305625,121.402735,"南陈路1","购物;便利店"
"场中市场便利店",31.301826,121.415433,"真大路549号A区150号","购物;便利店"
"便利店",31.289523,121.413169,"上海市宝山区真金路1176号","购物;便利店"
"上海市宝山区恩采食品商店",31.305564,121.406385,"南大路168-6号","购物;便利店"
"佳森综合超市(华灵路店)",31.285617,121.412374,"华灵路1885弄3号102室","购物;便利店"
"捷强连锁（行知店）",31.289551,121.419945,"行知路451识别","购物;商铺"
"捷强连锁(真金店)",31.29118,121.413137,"真金路1216","购物;商铺"
"上海市宝山区谢叶百货店",31.296314,121.417456,"真华路与华和路交叉口南","购物"
"新鲜岛超市",31.28186,121.425284,"大华三路81号美隆生活广场1层","购物"
"上海市宝山区家和百货店",31.298606,121.417526,"上海市宝山区真华路1987号","购物"
"宝山区堂堂百货店",31.288273,121.42325,"大华路1183-1号","购物"
"全家便利店(上大路站店)",31.320453,121.415578,"地铁7号线上大路站-7-103号(近地铁2号口)","购物;便利店"
"铭亮百货商店",31.307139,121.404341,"兆南路84号(近南大路)","购物;便利店"
"快客便利店(上大路店)",31.317147,121.402557,"上大路670-1号","购物;便利店"
"昆仑好客便利店",31.326236,121.413265,"沪太路3286号","购物;便利店"
"好德便利(环镇店)",31.313319,121.410217,"环镇北路556-558号","购物;便利店"
"正明便利店",31.327054,121.413275,"上海市宝山区锦秋路48号C219","购物;便利店"
"光明便利",31.313864,121.414777,"场联路与环镇北路交叉口西侧","购物;便利店"
"快客便利店(沪太路店)",31.310099,121.41784,"场联路77临","购物;便利店"
"好德便利(镇北店)",31.314327,121.416509,"环镇北路207号(场联路环镇北路)","购物;便利店"
"迪亚天天(环镇北店)",31.313826,121.409562,"环镇北路715-717号","购物;便利店"
"秋珍烟杂店",31.314791,121.40514,"南陈路279弄32-2","购物;便利店"
"锦秋便利店",31.326954,121.404157,"锦秋路402附近","购物;便利店"
"捷强便利店",31.314277,121.415971,"场联路与环镇北路交叉口西","购物;便利店"
"锦秋大酒店经营部",31.316427,121.405011,"上海市宝山区南陈路305弄-51号","购物;便利店"
"直销泰国橡胶木",31.314516,121.421369,"场中路3999弄41号","购物;便利店"
"楠楠便利店",31.313542,121.406386,"环镇北路827-831号","购物;便利店"
"呱呱公子",31.313703,121.413174,"环镇北路386临","美食;小吃快餐店"
"正权食品店",31.318628,121.412333,"上海市宝山区上大路128弄1-62号","购物"
"全家便利店(涵青路店)",31.334758,121.403936,"涵青路393号","购物;便利店"
"万顿便利店",31.341258,121.422737,"上海市宝山区南蕴藻路889号","购物;便利店"
"快客便利店(no.6181)",31.354386,121.403638,"顾新路7","购物;便利店"
"良友便利店",31.332554,121.414049,"上海市上海市宝山区泸太路3633号美润商业广场1层","购物;便利店"
"光明便利店",31.331698,121.404013,"上海市宝山区纬地路362号","购物;便利店"
"良友(顾太路NO.1店)",31.350198,121.406151,"顾太路91-1","购物;便利店"
"光明便利(NO.394店)",31.349705,121.40634,"顾太路83号","购物;便利店"
"顾新烟杂商店",31.354019,121.403358,"新贸路附近","购物;便利店"
"良友金伴便利店",31.332593,121.410273,"沪太路3633号101","购物;便利店"
"宝粮便民便利店",31.35471,121.404586,"顾新东路5临","购物;便利店"
"上海市宝山区秦港杂货店",31.346992,121.401396,"上海市宝山区顾陈路180号","购物;便利店"
"宝山区聚利综合商店",31.346034,121.407888,"沪太路4301号","购物;便利店"
"山东水饺宏意便利店",31.355281,121.404013,"上海市宝山区","购物;便利店"
"帅帅百货店(顾贸路)",31.3532,121.404597,"顾太路24号附近","购物;便利店"
"兴润便利店",31.346487,121.406195,"联牧路与沪太路交叉口西","购物;便利店"
"顾村乐惠杂货店",31.353302,121.403501,"新贸路附近","购物;便利店"
"龙业百货综合商店",31.355886,121.411101,"祥和路与安泰路交叉口南","购物;便利店"
"宝山区雪峰百货店",31.353506,121.404405,"顾太路18号附近","购物;便利店"
"上海宝山林林便利店",31.348535,121.406838,"上海市宝山区顾太路45号","购物;便利店"
"孙蓉华综合商店",31.353197,121.41656,"盛新路西150米","购物;便利店"
"顾村百货综合经营部",31.354019,121.403358,"新贸路3号","购物;便利店"
"长耕小超市",31.343534,121.419717,"上海市宝山区南藻路1590号-临","购物"
"闽乐超市",31.344079,121.404853,"沪太路4308号泰祥模板城综合楼D16-17","购物"
"全家便利店(梅陇店)",31.147177,121.432508,"徐汇区梅陇路97号(近天等路)","购物;便利店"
"全家便利店(罗香路店)",31.141661,121.444924,"罗香路166号","购物;便利店"
"迪亚天天(罗秀店)",31.137111,121.436928,"罗秀路963号(近天等路)","购物;便利店"
"全家便利店(老沪闵路店)",31.150026,121.435557,"徐汇区老沪闵路714号","购物;便利店"
"快客便利店(秀水店)",31.135532,121.429291,"徐汇区罗秀路1179号(近凌云路)","购物;便利店"
"好德便利(凌云店)",31.142525,121.425949,"凌云路365号(嘉川路凌云路)","购物;便利店"
"可的便利店(梅陇店)",31.145312,121.42758,"梅陇路309号(龙州路梅陇路)","购物;便利店"
"好德便利(龙州店)",31.136269,121.432819,"徐汇区龙州路445号（龙州路罗秀路）","购物;便利店"
"好德便利(罗香店)",31.142144,121.448041,"上海市徐汇区罗香路23号","购物;便利店"
"好德便利(天等店)",31.147131,121.43242,"梅陇路与天等路交叉口旁","购物;便利店"
"好德便利(罗闵店)",31.140706,121.442358,"罗香路263号(老沪闵路罗香路)","购物;便利店"
"良友(龙川北路店)",31.146904,121.446076,"龙川北路153-155号","购物;便利店"
"可的便利店(汉庭三店)",31.143671,121.434088,"天等路与丹棱路交叉口旁","购物;便利店"
"好德便利(汇成店)",31.149064,121.441956,"上海市徐汇区百色路1103-1107号","购物;便利店"
"快客便利店(长桥四村店)",31.140612,121.446843,"长桥四村29号","购物;便利店"
"迪亚天天(凌云店)",31.136582,121.429576,"凌云路与罗秀路交叉口旁","购物;便利店"
"好德便利(天中店)",31.141704,121.434683,"天等路212-2临","购物;便利店"
"快客便利店(体育花苑西)",31.148909,121.435738,"老沪闵路742号(百色路老沪闵路)","购物;便利店"
"张记杂货店",31.13823,121.443066,"罗秀路620临","购物;便利店"
"迪亚天天(石龙店)",31.154274,121.437062,"嘉陵路54号(嘉陵路石龙路)","购物;便利店"
"快客便利店(平福店)",31.148184,121.449635,"平福路451弄1号","购物;便利店"
"光明便利(NO.1086店)",31.154245,121.436649,"上海市徐汇区石龙路971号","购物;便利店"
"快客便利店(no.1183)",31.142114,121.438208,"上中西路25号(虹梅南路上中西路)","购物;便利店"
"雅丽烟杂便利店",31.14067,121.433038,"上中西路225号梅陇十一村大门口","购物;便利店"
"缘缘综合商店",31.155433,121.433669,"上海市徐汇区老沪闵路150弄-2-3-临","购物;便利店"
"可德超市(天等路店)",31.146624,121.43263,"天等路480临","购物;便利店"
"天宝杂货店",31.149019,121.435728,"老沪闵路742号","购物;便利店"
"光明便利店(梅陇路)",31.146702,121.431025,"上海市徐汇区梅陇路161-4号-临","购物;便利店"
"迪亚天天(老沪闵店)",31.140417,121.440386,"老沪闵路871-2号临(近罗香路)","购物;便利店"
"四新食品商店",31.145743,121.447939,"上中路456临","购物;便利店"
"好德便利(龙川店)",31.144213,121.448489,"龙川路125号(龙川路上中路)","购物;便利店"
"喜多平莲食品商店",31.156094,121.437677,"上海市徐汇区石龙路830-临","购物;便利店"
"好德便利(兴荣店)",31.137146,121.437433,"罗秀路中国银行东北40米","购物;便利店"
"好德便利店(川北店)",31.156169,121.444088,"龙川北路681弄2号(龙川北路罗城路交叉口)","购物;便利店"
"松风花园便利店",31.137813,121.439044,"上海市徐汇区罗秀路850-1临","购物;便利店"
"罗秀路便利店",31.13816,121.44207,"老沪闵路与罗秀路交叉口旁","购物;便利店"
"易购超便利(秀水店)",31.135496,121.429033,"罗秀路周小燕形象设计东北70米","购物;便利店"
"快客便利店(no.1172)",31.137825,121.441748,"老沪闵路与罗秀路交叉口旁(舒乐公寓东北)","购物;便利店"
"华粮食品商店(梅陇路店)",31.146172,121.428983,"梅陇路与龙州路交叉口旁","购物;便利店"
"海光商店",31.139798,121.42798,"凌云路204号","购物;便利店"
"鑫方炎综合商店",31.155382,121.433649,"上海市徐汇区老沪闵路150弄-2-3-临","购物;便利店"
"莉莉便利店",31.144374,121.448723,"龙川路与上中路交叉口南","购物;便利店"
"小卖部",31.150926,121.446782,"上海市徐汇区龙吴路1111号(近百色路)上海植物园内","购物;便利店"
"铭雨便利店",31.156146,121.437746,"上海市徐汇区石龙路818弄-1-～41号","购物;便利店"
"临房便利",31.138064,121.444305,"龙临路98临","购物;便利店"
"可的",31.145345,121.427586,"上海市徐汇区沪闵路8075号624室","购物;便利店"
"新景综合商店",31.144743,121.448249,"龙川路217临","购物;便利店"
"惠华便利店",31.14166,121.434708,"上海市徐汇区上中西路200-1号-临","购物;便利店"
"翰林食品店",31.154693,121.440005,"上海市徐汇区罗城路815号","购物;便利店"
"小卖部",31.150847,121.445533,"上海市徐汇区龙吴路1111号(近百色路)上海植物园内","购物;便利店"
"四景园茶行",31.142736,121.440374,"上海市徐汇区上中路35号","购物;便利店"
"小卖部",31.152981,121.448021,"上海市徐汇区龙吴路1111号(近百色路)上海植物园内","购物;便利店"
"益舟百货经营部",31.149235,121.442226,"百色路1084号","购物;便利店"
"振乐食品便利店",31.156074,121.437657,"石龙路与动力南五路交叉口旁","购物;便利店"
"上海徐汇立友综合经营部",31.152747,121.434717,"老沪闵路605-4临","购物;便利店"
"汇盛购物中心",31.149588,121.440927,"上海市徐汇区百色路1126号","购物;超市"
"常山日用百货",31.155758,121.432352,"老沪闵路203号","购物"
"兴隆杂货店",31.145015,121.446629,"龙川北路2号","购物"
"昆仑好客",31.141778,121.431349,"龙州路588号","购物"
"福英杂货店",31.136728,121.434702,"(龙州小区)罗秀路1095弄大门口(龙州路)","购物"
"罗城食品便民店",31.15526,121.441541,"罗城路695","购物"
"旋昊百货店",31.154975,121.432871,"老沪闵路235-2临","购物"
"全家便利店(漕宝店)",31.174422,121.438306,"漕宝路36号","购物;便利店"
"全家便利店(石龙路店)",31.161117,121.43584,"沪闵路9001-3号银泰购物中心南商场B1楼(pump运动品牌后面)","购物;便利店"
"全家便利店(漕东支路店)",31.177912,121.444026,"漕东支路106-108号(近大佳洗衣)","购物;便利店"
"全家便利店(康健路店)",31.171991,121.438876,"康健路21号(近钦州路)","购物;便利店"
"全家便利店(桂林东街店)",31.163331,121.428519,"桂林东街188号","购物;便利店"
"全家便利店(冠生园店)",31.169435,121.433882,"冠生园路229号(近光大会展中心)","购物;便利店"
"全家便利店(龙川北路店)",31.15884,121.441856,"石龙路750-3号盛泰购物中心南商场地下1层","购物;便利店"
"全家便利店(田东路店)",31.18121,121.44228,"漕溪路163号102室(近田林东路)","购物;便利店"
"全家便利店(田林东路二店)",31.179206,121.43328,"上海市徐汇区田林东路450-1-临","购物;便利店"
"喜士多便利店(漕宝路店)",31.174651,121.43485,"漕宝路75号（漕宝路与习勤路交口）","购物;便利店"
"好德便利(龙漕店)",31.174763,121.442919,"龙漕路36号","购物;便利店"
"罗森便利店(田林东路店)",31.179091,121.433587,"田林东路407号(钦州路)","购物;便利店"
"罗森便利店(澳龙大厦店)",31.175184,121.443187,"龙漕路39号(近漕东支路)","购物;便利店"
"711便利店(老沪闵路银泰店)",31.158031,121.437763,"老沪闵路399号上海南站南广场内(近石龙路)","购物;便利店"
"好德便利(漕溪店)",31.176597,121.444218,"漕溪三村497号(漕东三路漕溪路)","购物;便利店"
"罗森便利店(中星城店)",31.165045,121.435715,"浦北路9号1层","购物;便利店"
"好德便利(钦州店)",31.16893,121.437279,"路112号(冠生园路钦州路)","购物;便利店"
"好德便利(钦南店)",31.166124,121.430729,"徐汇区钦州南路300弄8号","购物;便利店"
"好德便利(宜田店)",31.179745,121.426235,"田林十村44号(柳州路宜山路)","购物;便利店"
"好德便利(漕东店)",31.180134,121.443198,"徐汇区漕东路250号（漕东路漕东支路）","购物;便利店"
"良友金伴便利店(田林店)",31.177271,121.42793,"田林路49号","购物;便利店"
"快客便利店(柳州店)",31.1642,121.434623,"柳州路90-B号(柳州路浦北路)","购物;便利店"
"亮云综合便利店",31.161578,121.431649,"桂林东街95号临","购物;便利店"
"快客便利店(漕东店)",31.176163,121.447132,"上海市徐汇区龙漕路163号","购物;便利店"
"好德便利(漕园店)",31.177169,121.44186,"漕溪路201号(漕溪北路蒲西路)","购物;便利店"
"好德便利(柳漕店)",31.176061,121.43121,"柳州路431号","购物;便利店"
"可的便利店(漕宝路)",31.171984,121.433361,"徐汇区康健路4205号(康健路习勤路)","购物;便利店"
"快客便利店(no.5600)",31.173023,121.431395,"柳州路258-6","购物;便利店"
"喜士多便利店(爱建园店)",31.181241,121.438795,"田林东路爱建园120号西会所109室","购物;便利店"
"好德便利(南站店)",31.158405,121.440669,"石龙路661-663号(动力南一路石龙路)","购物;便利店"
"可的便利店(老凤祥店)",31.176062,121.440726,"漕溪路260-2临","购物;便利店"
"迪亚天天(田林店)",31.180413,121.430316,"田林十三村2号1楼(近柳州路实验中学)","购物;便利店"
"好德便利(柳州店)",31.180262,121.429939,"徐汇区田林十三村4号","购物;便利店"
"可的便利店(钦洲店)",31.180039,121.435172,"上海市徐汇区田林东路360弄2号","购物;便利店"
"迪亚天天(冠生园店)",31.169236,121.433289,"徐汇区冠生园路231号1幢","购物;便利店"
"好德便利(寿山店)",31.159434,121.428602,"徐汇区桂林西街201弄5号(近桂林路)","购物;便利店"
"可的便利店(龙漕店)",31.178698,121.446496,"漕溪四村1号","购物;便利店"
"光明便利店(三江店)",31.170648,121.445452,"三江路(漕河泾社区服务中心旁)","购物;便利店"
"光明便利店(NO.103)",31.174283,121.43295,"漕宝路103-4号-临","购物;便利店"
"好德便利(钦键店)",31.171001,121.437388,"钦州路260号(康健路钦州路)","购物;便利店"
"快客便利店(no.5296)",31.169884,121.44315,"宾阳路9-3号(汇成宾阳苑北)","购物;便利店"
"光明便利(龙华店)",31.180873,121.449629,"龙华西路315弄1-1临(龙华西路龙吴路)","购物;便利店"
"良友(冠生园店)",31.169584,121.439225,"冠生园路7号","购物;便利店"
"快客便利店(no.5576)",31.177757,121.44078,"漕溪路222号3号楼101单元","购物;便利店"
"爱森优选(田林2店)",31.180014,121.43481,"上海市徐汇区田林东路362-5号-临","购物;便利店"
"好德便利(习勤路店)",31.172717,121.434206,"徐汇区习勤路18号(康健路习勤路)","购物;便利店"
"哈多屋鲜果便利(龙漕店)",31.17506,121.44201,"上海市徐汇区龙漕路1弄-8号-3","购物;便利店"
"快客便利店(NO.5520)",31.172201,121.440302,"沪闵路9504-6号","购物;便利店"
"快客便利店(桂林西街店)",31.158286,121.426903,"桂林西街111弄129号","购物;便利店"
"骐韬食品商店",31.178355,121.434186,"田林十二村28号104室","购物;便利店"
"联友便利店",31.175239,121.450639,"凯旋南路95-99号","购物;便利店"
"便民杂货店",31.168678,121.431835,"柳州路200-1临","购物;便利店"
"快客便利店(no.6089)",31.163235,121.449723,"石龙路123号(近东泉路)","购物;便利店"
"快客便利店(康强坊社区卫生服务站东北)",31.161682,121.431709,"桂林东街95","购物;便利店"
"快客便利店(no.1178)",31.172219,121.434246,"习勤路52号(康健路习勤路)","购物;便利店"
"良友便利店",31.179499,121.447206,"龙田路195号4幢101室","购物;便利店"
"沂山便利",31.179889,121.431885,"田林东路414弄田林十三村东大门口70号","购物;便利店"
"上海俐民商场",31.17201,121.438524,"康健路29-1号","购物;便利店"
"易捷便利店(石龙路)",31.159643,121.442186,"上海市徐汇区石龙路577号","购物;便利店"
"迪亚天天",31.168262,121.437549,"漕河泾街道梓树园","购物;便利店"
"良友集团粮油平价店NO.005",31.179712,121.426125,"田林五六七村田林新村","购物;便利店"
"石龙食品商店",31.163635,121.449704,"石龙路128-3","购物;便利店"
"为民便利店(钦州南路)",31.166197,121.431059,"上海市徐汇区钦州南路258号-临","购物;便利店"
"良友漕溪便利店",31.176629,121.447077,"漕溪四村10号","购物;便利店"
"良友(东泉路店)",31.16284,121.450804,"东泉路12号","购物;便利店"
"牛奶商城(钦州南路店)",31.166813,121.433729,"钦州南路263号(近柳州路)","购物;便利店"
"友海百货商店",31.156618,121.443769,"龙川北路709临","购物;便利店"
"258便利店",31.176288,121.439743,"上海市徐汇区漕溪路258弄7号","购物;便利店"
"兴达食品经营部",31.172007,121.439673,"上海市徐汇区康健路5-2号","购物;便利店"
"张塘食品商店",31.163213,121.448275,"石龙路288-2号","购物;便利店"
"商务便利店",31.174613,121.434757,"漕宝路38号乔纳施商务楼1层","购物;便利店"
"气象苑小卖部",31.174918,121.444511,"上海市徐汇区三江路6号","购物;便利店"
"飞虹副食品综合商店",31.180258,121.429516,"柳州路545附近","购物;便利店"
"海之杰便利店",31.158271,121.439863,"石龙路728号2楼","购物;便利店"
"集金商贸便利店",31.158951,121.437397,"上海市徐汇区石龙路750号","购物;便利店"
"永杰便利店",31.162887,121.448542,"石龙路321号","购物;便利店"
"上海市徐汇区美达综合商店(025)",31.180761,121.430507,"田林14村","购物;便利店"
"徐汇区惠杨百货商店",31.157732,121.449423,"罗城路351号","购物;便利店"
"欢琪便利店",31.180356,121.430178,"田林十三村2号1室(田林派出所)","购物;便利店"
"泰鑫便利店",31.1577,121.43988,"动力南一路与石龙路交叉口旁","购物;便利店"
"百惠便利店",31.16209,121.432244,"上海市徐汇区桂林东街99弄2-40号","购物;便利店"
"弘声食品商店",31.178264,121.43376,"田林十二村28号104室","购物;便利店"
"天天便利",31.172595,121.441021,"沪闵路9559号","购物;便利店"
"喜多多便利店",31.175952,121.433221,"漕宝路99弄7号","购物;便利店"
"仟开心百货经营部",31.175796,121.448337,"龙漕路200路15号(近漕宝路)","购物"
"快来(罗城路牛奶食品店)",31.156808,121.444911,"罗城路977-1号","购物"
"small",31.167221,121.429085,"桂林路81号上海师范大学徐汇校区东部内","购物"
"上海市第八人民医院-卖品部",31.173424,121.440453,"沪闵路9808","购物"
"南源综合经营部",31.163795,121.435127,"柳州路82-2号上南宾馆旁(近上海南站)","购物"
"全家便利店(亚都店)",31.195036,121.444899,"南丹东路300弄9号","购物;便利店"
"全家便利店(乐山路)",31.2025,121.439094,"乐山路33号(近广元路)","购物;便利店"
"全家便利店(零陵路店)",31.190095,121.446359,"零陵路729号(近三角东街)","购物;便利店"
"全家便利店(裕德店)",31.19123,121.441284,"裕德路72号(近漕溪北路)","购物;便利店"
"全家便利店(华山路二店)",31.204572,121.441498,"徐汇区漕溪北路339号百脑汇二期4楼4Y01号商铺(近南丹东路)","购物;便利店"
"全家便利店(虹桥路店)",31.203984,121.427248,"虹桥路959号","购物;便利店"
"快客便利店(上实店)",31.198896,121.444164,"漕溪北路18号103室","购物;便利店"
"全家便利店(中山西路六店)",31.189493,121.43264,"中山西路1065号SOHO中山广场B幢202(近虹桥路)","购物;便利店"
"罗森便利店(光启城店)",31.195523,121.436288,"上海市徐汇区宜山路455号光启城时尚购物中心B2层","购物;便利店"
"711便利店(城开店)",31.200121,121.438268,"虹桥路355号城开国际大厦1层106室","购物;便利店"
"好德便利(广元店)",31.205182,121.444706,"广元路196甲","购物;便利店"
"711便利店(永新坊店)",31.198925,121.449517,"辛耕路121号","购物;便利店"
"罗森便利店(南丹东路店)",31.196495,121.449919,"南丹东路100弄1号(南丹东路天钥桥路)","购物;便利店"
"全家便利店(中山西路店)",31.197968,121.426286,"中山西路1277号4栋106室(近吴中路)","购物;便利店"
"全家便利店(上体场店)",31.186259,121.44867,"上海体育场5号扶梯下","购物;便利店"
"快客便利店(禺秀店)",31.201396,121.434584,"番禺路1000号（番禺路秀山路）","购物;便利店"
"罗森便利店(华山路店)",31.20304,121.443664,"徐汇区华山路2088号汇银大厦内(近广元西路)","购物;便利店"
"全家便利店(上海游泳馆站店)",31.1856,121.446949,"轨道交通十一号线上海游泳馆11-101(近虹桥路)","购物;便利店"
"喜士多便利店(宜山店)",31.18482,121.431096,"徐汇区宜山路631号（近钦州路小闸镇街）","购物;便利店"
"全家便利店(徐家汇站店)",31.19359,121.438254,"轨道交通十一号线徐家汇站11-102号.103号","购物;便利店"
"全家便利店(天钥桥路三店)",31.194565,121.4482,"天钥桥路363号1楼02室1座(慈云街天钥桥路)","购物;便利店"
"全家便利店(飞洲国际店)",31.189569,121.443972,"零陵路899号飞洲国际大厦B1楼(上海体育馆地铁站)","购物;便利店"
"全家便利店(凯旋南路店)",31.182685,121.444961,"上海市徐汇区","购物;便利店"
"全家便利店(申隧设计大厦南)",31.188284,121.433003,"中山西路2020号101室","购物;便利店"
"罗森便利店(虹桥路店)",31.20309,121.427635,"凯旋路1568临","购物;便利店"
"711便利店(番禺路店)",31.202536,121.43466,"番禺路878-3临","购物;便利店"
"可的便利店(蒲汇塘店)",31.193556,121.43962,"蒲汇塘路101-9号(蒲汇塘路文定路)","购物;便利店"
"好德便利(中山西路店)",31.186931,121.438727,"中山西路2368号106室(近农工商)","购物;便利店"
"侬家便利店",31.200699,121.448901,"徐汇区肇嘉浜路1029弄60号1-2临","购物;便利店"
"喜士多便利店(中山西路店)",31.189092,121.432247,"中山西路2006号(近宜山路)","购物;便利店"
"可的便利店(虹桥店)",31.201073,121.430502,"虹桥路808-3临","购物;便利店"
"711便利店(广元西路店)",31.202529,121.440593,"上海市徐汇区广元西路88-9临","购物;便利店"
"罗森便利店(东方曼哈顿店)",31.197871,121.44044,"虹桥路168号东方曼哈顿3号楼1单元B1楼(近文定路)","购物;便利店"
"全家便利店(汇智大楼店)",31.194066,121.442804,"漕溪北路398汇智大厦1层104室","购物;便利店"
"番禺食品商店",31.205739,121.435729,"番禺路650弄4-2临","购物;便利店"
"友邻便利店",31.182178,121.45087,"龙华西路398弄3号楼强生花苑","购物;便利店"
"罗森便利店(番禺路店)",31.204291,121.43498,"番禺路284号(番禺路牛桥路)","购物;便利店"
"喜士多便利店(漕溪北路店)",31.183051,121.44236,"漕溪路123号（漕溪北路蒲西路）（格林豪泰）(万体店)","购物;便利店"
"好德便利(淮西店)",31.204187,121.431049,"长宁区淮海西路568号(近虹桥路)","购物;便利店"
"商苑超市便利店",31.188647,121.436245,"上海市徐汇区中山西路2277号","购物;便利店"
"快客便利店(no.5062)",31.190939,121.433681,"宜山路450号1003商铺","购物;便利店"
"快客便利店(万顺店)",31.202561,121.439677,"上海市徐汇区乐山路17号","购物;便利店"
"快客便利店(no.5469)",31.191361,121.429774,"中山西路1281-2临","购物;便利店"
"罗森便利店(徐虹北路店)",31.195947,121.433916,"徐虹北路18弄1A室","购物;便利店"
"罗森便利店(徐汇苑店)",31.185135,121.44955,"中山南二路1089号徐汇苑大厦1楼东侧(天钥桥路龙华西路间)","购物;便利店"
"光明便利(淮海西店)",31.20546,121.435919,"番禺路667号底层乙座","购物;便利店"
"可的便利店(徐虹店)",31.19404,121.430773,"古宜路与徐虹中路交叉口旁","购物;便利店"
"罗申便利店",31.198497,121.446326,"徐汇区漕溪北路41号汇嘉大厦内(近虹桥路)","购物;便利店"
"光明便利(凯旋店)",31.200726,121.428568,"凯旋路1671号(近虹桥路)","购物;便利店"
"好德便利(南丹店)",31.195661,121.438631,"南丹路132号(汇站街南丹路)","购物;便利店"
"好德便利(徐虹店)",31.198487,121.436007,"徐虹北路90号(虹桥路徐虹北路)","购物;便利店"
"罗森便利店(宏汇店)",31.1932,121.428313,"中山西路1600号(宏汇国际广场A座05/06室)","购物;便利店"
"好德便利(乐山店)",31.202561,121.439746,"乐山路32号","购物;便利店"
"好德便利(吴东店)",31.195804,121.428235,"吴中东路588号(吴中路中山西路)","购物;便利店"
"气象大楼的全家",31.196328,121.443688,"漕溪北路198号","购物;便利店"
"快客便利店(no.5241)",31.194191,121.450707,"斜土路2584-1","购物;便利店"
"快客便利店(徐虹店)",31.1936,121.430194,"徐虹中路26-1号","购物;便利店"
"快客便利店(古宜店)",31.192137,121.432376,"上海市徐汇区古宜路99弄1-13号","购物;便利店"
"快客便利店(漕溪北路店)",31.188121,121.442023,"徐汇区天钥桥路666号体育场1幢IV区B-1","购物;便利店"
"上祥一分公司便利店",31.189082,121.442413,"漕溪北路,零陵路口","购物;便利店"
"石明杂货店",31.187839,121.438309,"中山西路2323号","购物;便利店"
"联华快客(华亭宾馆店)",31.188346,121.442124,"漕溪北路1200号华亭宾馆内(近零陵路)","购物;便利店"
"easyu",31.200162,121.447569,"天钥桥路1-3临","购物;便利店"
"罗森便利店(广元西路12号店)",31.204007,121.442616,"广元西路12临","购物;便利店"
"好德便利（申德店）",31.182709,121.427748,"柳州路与宜山路交叉口北80米路东","购物;便利店"
"良友金伴便利店(徐虹北路)",31.199845,121.436866,"徐虹北路110号(虹桥路徐虹北路)","购物;便利店"
"全家便利店(天钥桥路NO.4)",31.193983,121.445572,"天钥桥路380弄31-2","购物;便利店"
"COOKIES味之道",31.199712,121.44612,"肇嘉浜路1111号美罗城B1楼五番街内(近地铁1号线徐家汇站)","购物;便利店"
"快客便利店(no.6965)",31.19955,121.427005,"上海市长宁区虹桥路996弄-161-3号-临","购物;便利店"
"好德便利(蒲汇店)",31.192837,121.440968,"上海市徐汇区蒲汇塘路56-临","购物;便利店"
"凯味生物科技有限公司福宽进口食品店",31.204213,121.431052,"淮海西路750号(近虹桥路)","购物;便利店"
"易捷便利店(小闸镇街)",31.187996,121.433949,"中山西路2026-12临","购物;便利店"
"爱必顿增肥奶粉ole(港汇店)",31.200979,121.443632,"虹桥路1号港汇广场1楼","购物;便利店"
"好德便利店(NO.434店)",31.196072,121.446506,"上海市徐汇区南丹东路193号临","购物;便利店"
"好德便利(凯旋店)",31.199571,121.429509,"凯旋路1798-2临","购物;便利店"
"易捷便利店(宛平路店)",31.204216,121.450435,"徐汇区宛平路288号(近肇嘉浜路)","购物;便利店"
"光明便利店(NO.1027店)",31.195236,121.436135,"上海市徐汇区宜山路280-1临","购物;便利店"
"快客便利店(no.5432)",31.205102,121.444425,"上海市徐汇区","购物;便利店"
"快客便利店(no.6088)",31.184658,121.427102,"柳州路595号2-3","购物;便利店"
"康亚便捷",31.190093,121.432016,"中山西路1695-1临","购物;便利店"
"喜士多便利店(双峰店)",31.193606,121.449446,"斜土路2601-2611号嘉汇广场(近天钥桥路)","购物;便利店"
"上海众兴食品商店",31.194282,121.439939,"上海市徐汇区文定路150号","购物;便利店"
"牛奶商城(肇嘉浜店)",31.200703,121.448901,"徐汇区肇嘉浜路1029弄60-5临","购物;便利店"
"罗森便利店(湘江大厦店)",31.198857,121.426813,"中山西路1265弄28-3临102室","购物;便利店"
"宇浩便利店",31.181399,121.435302,"田林东路与钦州路交叉口北","购物;便利店"
"良友金伴便利店(柳州店)",31.181432,121.428177,"柳州路580号(柳州路宜山路)","购物;便利店"
"天醇杂货店",31.205401,121.444626,"天平路141号附近","购物;便利店"
"可的(家饰佳店)",31.190077,121.431999,"中山西路1695号(长顺路虹桥路)","购物;便利店"
"徐汇区长春杂货商店",31.187017,121.42951,"上海市徐汇区钦州北路88号","购物;便利店"
"梓萱便利店",31.195781,121.429444,"上海市徐汇区","购物;便利店"
"熠彩Elife",31.188022,121.440375,"凯旋路3500号华苑大厦1号楼2楼C座","购物;便利店"
"乐驿商场",31.184812,121.429842,"宜山路600号","购物;便利店"
"虹桥便利店",31.201462,121.43105,"徐汇区博园路1333号3幢(近北虹桥电商产业园)","购物;便利店"
"罗森便利店(圣爱大厦店)",31.198258,121.44346,"徐汇区漕溪北路38号圣爱大厦1楼(近虹桥路)","购物;便利店"
"上海昊泳食品经营有限公司凯旋路店",31.199132,121.431825,"虹桥路塘子泾124-1临","购物;便利店"
"海平综合商店",31.197518,121.428657,"古宜路与吴中东路交叉口北200米","购物;便利店"
"家佳备便利百货店",31.192631,121.450596,"零陵路675-2临","购物;便利店"
"杉杉百货",31.196838,121.435946,"南丹路337号","购物;便利店"
"阿英便利店",31.198933,121.425987,"上海市长宁区中山西路1265弄-10号-临","购物;便利店"
"学泉杂货店",31.186709,121.428328,"徐家汇钦州北路158号","购物;便利店"
"上海捷运便利店(钦州北路店)",31.186395,121.426904,"钦州北路与柳州路交叉口旁","购物;便利店"
"宛平便利店(NO.1)",31.206067,121.449937,"上海市徐汇区宛平路189弄-2-1-临","购物;便利店"
"上海市徐汇区沙路食品商店",31.202116,121.44053,"广元西路108-1临","购物;便利店"
"凯心便利店",31.194208,121.433197,"上海市徐汇区凯旋路2282-5号-临","购物;便利店"
"钦州便利店",31.182189,121.434449,"钦州路860号3号门门口","购物;便利店"
"盛旗便利店",31.201064,121.438699,"广元西路317临","购物;便利店"
"便利店",31.200772,121.42712,"上海市长宁区","购物;便利店"
"上海国锋食品经营部",31.185528,121.43326,"中山西路小闸蟹街113-1临","购物;便利店"
"新征易购超便利",31.193423,121.450056,"零陵路677弄11-1临","购物;便利店"
"漕溪轻轨小店",31.183497,121.444019,"凯旋南路915号","购物;便利店"
"四方果品商店(小闸食品店)",31.185598,121.433289,"中山西路小闸蟹街113-1临","购物;便利店"
"麒麟便利店",31.194131,121.450637,"斜土路2586-1临","购物;便利店"
"长运便利店",31.191111,121.431109,"上海市徐汇区中山西路1551-4号-临","购物;便利店"
"为民小店",31.205888,121.443197,"华山路1845-2附近","购物;便利店"
"琴亮杂货店",31.184831,121.43318,"宜山路小闸镇126号第3幢","购物;便利店"
"南天乐帮服务社",31.196799,121.448733,"天钥桥路217-3临","购物;便利店"
"百果旺水果店",31.186465,121.42632,"钦州北路391号(近柳州路)","购物;超市"
"好便利超市",31.182961,121.443144,"漕溪路123弄15号(皇家大厦东)","购物;超市"
"爱森优选(中山西路店)",31.198275,121.426087,"中山西路1277号-115室","购物"
"NGSmart",31.186803,121.438857,"三汇路与凯进路交叉口西南50米","购物"
"上海奥林匹克俱乐部商场",31.187001,121.44627,"迎宾路","购物"
"全家便利店(镇宁路二店)",31.222561,121.444535,"上海市静安区镇宁路90-～98号","购物;便利店"
"全家便利店(长峰店)",31.218021,121.437546,"长宁区江苏路458号107-1室舜天天地1楼(近联通)","购物;便利店"
"全家便利店(法华镇路店)",31.208387,121.440363,"上海市长宁区法华镇路6号","购物;便利店"
"罗森便利店(九百商城店)",31.230331,121.450125,"静安区万航渡路50号九百世纪商城1楼(近愚园路)","购物;便利店"
"全家便利店(定西四店)",31.223813,121.428407,"定西路1552号(定西路宣化路)","购物;便利店"
"华东医院-综合服务部(延安西路)",31.225372,121.44706,"延安西路257号","购物;便利店"
"全家便利店(愚园路四店)",31.225053,121.431579,"愚园路1265号","购物;便利店"
"全家便利店(乌鲁木齐中路店)",31.223274,121.450491,"静安区乌鲁木齐中路1号(近华山医院)","购物;便利店"
"罗森便利店(湖南路店)",31.213861,121.449575,"徐汇区淮海中路1640号(近湖南路)","购物;便利店"
"全家便利店(延安二店)",31.216254,121.435071,"延安西路1160号106室","购物;便利店"
"海富便利店",31.211318,121.432944,"法华镇路455-14临","购物;便利店"
"全家便利店(番禺路三店)",31.215367,121.435787,"番禺路56号(近中国银行)","购物;便利店"
"可的便利店(武康店)",31.219498,121.446809,"武康路55号(安福路武康路)","购物;便利店"
"711便利店(西华店)",31.208222,121.44144,"淮海西路1号西华酒店公寓1楼","购物;便利店"
"全家便利店(延安西路店)",31.225951,121.447211,"延安西路238号","购物;便利店"
"全家便利店",31.209208,121.436787,"番禹路483号1层B单元","购物;便利店"
"罗森便利店(长宁支路店)",31.229558,121.429227,"上海市长宁区长宁支路333号-3","购物;便利店"
"全家便利店(杨宅路店)",31.212398,121.426183,"杨宅路40弄4号101，102室","购物;便利店"
"全家便利店(种德桥路店)",31.214243,121.426789,"上海市长宁区种德桥路2-3临","购物;便利店"
"全家便利店(镇宁路三店)",31.229417,121.442046,"镇宁路449号","购物;便利店"
"罗森便利店(昭化东路店)",31.220328,121.442132,"长宁区昭化东路102号","购物;便利店"
