"name","lat","lng","address","detail_info"
"大发超市",31.023378,121.226026,"上海松江区荣乐中路552号-652号","购物;超市"
"联华超市(松江人民店)",31.020193,121.233502,"松江区乐都路348-8号","购物;超市"
"联华超市(南期昌路店)",31.030559,121.23206,"上海市松江区南期昌路482、484号","购物;超市"
"联华超市(乐都路店)",31.019332,121.216919,"上海市松江区乐都路669号","购物;超市"
"兴地超市",31.030509,121.23309,"南期昌路巴比馒头旁","购物;超市"
"上海农林学院超市",31.01652,121.227226,"中山二路658号农林职业技术学院","购物;超市"
"农工商超市(NO.3461店)",31.032258,121.232983,"上海市松江区","购物;超市"
"联华超市(江学路店)",31.034177,121.217856,"上海市松江区江学路321弄22~24号","购物;超市"
"茸建超市",31.031318,121.224702,"西林北路1035号","购物;超市"
"华联超市(林北店)",31.015789,121.229046,"上海市松江区中山二路613、615号","购物;超市"
"如海超市",31.017423,121.221092,"永丰路与仓丰路交叉口旁","购物;超市"
"爱哆哆",31.017015,121.221051,"永丰路237","购物;超市"
"华联超市(荣乐店)",31.023162,121.22936,"荣乐中路与西林北路交叉口东210米","购物;超市"
"华联超市",31.014864,121.215669,"上海市松江区玉树路2504弄","购物;超市"
"好又多超市",31.018424,121.214243,"上海市松江区玉树路2715弄10号","购物;超市"
"全家便利店(通跃路店)",31.037401,121.237217,"上海市松江区嘉松南路408号松江新城商业广场1层","购物;便利店"
"伍缘(南其昌路店)",31.03227,121.23302,"南期昌路四五八弄96号","购物;超市"
"联华超市(见面缘店)",31.015788,121.232511,"松江中山二路兰州牛肉拉面对面","购物;超市"
"阿圆便利",31.036412,121.237746,"通跃路桂林米粉旁","购物;超市"
"九峰超市",31.019933,121.236956,"乐都路九峰路口(九峰小区)","购物;超市"
"闽辉超市",31.014087,121.234853,"人民北路73-2号","购物;超市"
"罗森便利店(松江妇幼保健医院店)",31.030812,121.226968,"上海市松江区西林北路1010号松江妇幼保健院内(近思贤路)","购物;便利店"
"佳美超市",31.023156,121.234654,"荣乐中路九峰新村201号楼对面","购物;超市"
"如海超市(思贤路)",31.036793,121.237058,"嘉松南路288号松九商城2楼","购物"
"万嘉超市",31.03723,121.218009,"江学路381弄8号","购物;超市"
"联都超市(永丰店)",31.017798,121.221434,"永丰路与仓丰路交叉口北140米","购物;超市"
"李家超市(人民北路店)",31.016565,121.234771,"人民北路62号","购物;超市"
"全家便利店(中山二路店)",31.016151,121.228727,"中山二路610号(近西林路)","购物;便利店"
"邻家超市",31.018237,121.215135,"上海市松江区","购物;超市"
"华联超市(NO.1721店)",31.036408,121.217754,"江学路与文诚路交叉口南200米","购物;超市"
"全家便利店(中山中路店)",31.01843,121.234415,"人民北路100号（近招商银行）","购物;便利店"
"强友超市",31.019456,121.216446,"玉树路(近玉树南苑)","购物;超市"
"雪阳超市",31.030571,121.229291,"南期昌路600号","购物;超市"
"曙光百货商店",31.029233,121.223017,"南期昌路889弄167号","购物;便利店"
"富鑫超市",31.022015,121.23363,"人民北路196号","购物"
"好德便利店(乐都店)",31.019753,121.227616,"乐都路404、406-1","购物;便利店"
"好德便利店(昌其店)",31.030508,121.234938,"南期昌路352-354号","购物;便利店"
"罗森便利店(松江中山二路)",31.015744,121.228775,"西林北路与松江中山二路交叉口旁","购物;便利店"
"罗森便利店(荣乐中路)",31.023181,121.238306,"荣乐中路与九峰路交叉口旁","购物;便利店"
"小春便民店",31.014485,121.228602,"西林北路1号111号","购物;便利店"
"可的便利店(松江乐都店)",31.019775,121.236244,"乐都路300号","购物;便利店"
"韩国食品超市",31.035668,121.237455,"通跃路55(地铁9号线2号出口)","购物"
"好德便利店(荣乐店)",31.022693,121.235824,"荣乐中路231","购物;便利店"
"菜齐美生鲜便利",31.030593,121.230879,"松江人民北路与南期昌路交叉口东","购物;便利店"
"好德便利店(民乐店)",31.024106,121.232945,"人民北路318/320号","购物;便利店"
"快客便利店(no.6308)",31.020829,121.227825,"松江区西林北路与乐都路交叉口北","购物;便利店"
"古越山",31.030563,121.231963,"南期昌路490号","购物;便利店"
"伍缘(中山二路店)",31.01575,121.229241,"中山二路601-603号","购物"
"易捷便利店(玉树路店)",31.022126,121.216263,"荣乐西路129(近玉树路)","购物;便利店"
"绿牵便利店",31.030493,121.236224,"南期昌路306号","购物;便利店"
"便利店(绿牵站店）",31.030549,121.235955,"上海市松江区","购物;便利店"
"同心便利",31.036793,121.237385,"上海市松江区嘉松南路408号松江新城商业广场1层","购物;便利店"
"便利店",31.013928,121.215595,"上海市松江区","购物;便利店"
"好德便利店",31.023126,121.23789,"荣乐中路122号","购物;便利店"
"国妹杂货商店",31.023925,121.233016,"荣乐中路与人民北路交叉口旁","购物;便利店"
"屈臣氏(松江惠鑫百货店)",31.019762,121.233191,"上海市松江区乐都路348号惠鑫百货一层","购物;商铺"
"姐妹商店",31.03238,121.233488,"南期昌路四五八弄90号","购物;便利店"
"友良商店",31.021018,121.230426,"乐都路荣乐二村4号2","购物;便利店"
"南北码头食品商行(松江店)",31.035795,121.237606,"通跃路65号附近","购物"
"绿源烟糖商行",31.017954,121.233657,"人民北路181号","购物;便利店"
"松顺商行",31.017056,121.215595,"仓丰路与玉树路交叉口旁","购物;便利店"
"万灵商行",31.017941,121.233657,"松江人民北路191号附近","购物;便利店"
"红伟杂货店",31.019314,121.216198,"乐都路691号","购物;便利店"
"渝中食品店",31.019398,121.224263,"乐都路461号","购物;便利店"
"福满园水果超市",31.015828,121.23093,"上海市松江区","购物;超市"
"永丰水果超市",31.01509,121.222117,"永丰路30号","购物;超市"
"留想水果超市",31.015832,121.232259,"中山二路252号","购物;超市"
"新明烟酒水果蔬菜超市",31.032387,121.233308,"南期昌路458弄93","购物;超市"
"蕾红水果卖场",31.034395,121.218046,"松江新城方松街道江学路321弄2号","购物;超市"
"水果超市",31.019456,121.216446,"上海市松江区","购物;超市"
"小张蔬菜",31.0309,121.232628,"南期昌路458弄13号","购物;超市"
"金芙蓉果品超市(文诚路)",31.038296,121.21677,"江学路381号(近文诚路)","购物;超市"
"艺好果业(永丰店)",31.017665,121.221087,"上海市松江区永丰路281-285号","购物;超市"
"老沈瓜子店",31.017048,121.221379,"松江区永丰路232号","购物;超市"
"松乐百货",31.016135,121.231227,"中山二路506","购物"
"韩国进口食品超市(新城店)",31.03589,121.237636,"通跃路55","购物"
"乐购超市(上海松江店)",31.044294,121.224079,"上海市松江区新松江路926号开元・地中海商业广场1层","购物;超市"
"卜峰莲花超市",31.038953,121.226361,"文诚路238弄1号(近人民北路)","购物;超市"
"华联超市(梅湘路)",31.059049,121.23675,"上海市松江区梅家浜路1500弄1-40号三湘四季花城财富广场1层","购物;超市"
"华联超市(NO.3141店)",31.045954,121.217696,"方松街道新松江路1292弄1号","购物;超市"
"如海超市(云清路店)",31.061815,121.231638,"云清路45","购物;超市"
"联华超市(文汇路)",31.055806,121.227628,"文汇路300弄38","购物;超市"
"全佳超市",31.058014,121.235815,"梅家浜路1509号","购物;超市"
"学生超市",31.055841,121.214856,"上海市松江区松江大学城文汇路640号樱花广场1层","购物;超市"
"上海教育超市(NO.59)",31.055239,121.222208,"文翔路1900号上海对外经贸大学松江校区内","购物;超市"
"联华超市(绿地・蔷薇九里东南)",31.060231,121.236099,"龙马路118弄103号(三湘四季花城东南)","购物;超市"
"时代华联超市(NO.5178)",31.039093,121.226529,"方松街道文城路238弄3号","购物;超市"
"全家便利店(三湘风情街店)",31.060566,121.235869,"上海市松江区","购物;便利店"
"好又多超市",31.039705,121.218017,"江学路557号","购物;超市"
"联华超市(南部阳光翠庭西北)",31.044698,121.220957,"上海市松江区新松江路1060号","购物;超市"
"Hellokitty(开元地中海店)",31.044777,121.22461,"新松江路924弄开元地中海商业广场2楼","购物;超市"
"联华超市(泗泾店)",31.058463,121.227288,"松江区泗泾镇沪松公路2972弄18-20号","购物;超市"
"良友超市(颛兴路店)",31.039775,121.217346,"方松街道江学路555弄20号1层","购物;超市"
"全家便利店(新松江路店)",31.046597,121.217557,"上海市松江区松江路1388号东明国际商城1层","购物;便利店"
"华联超市(东明国际商城)",31.044553,121.218922,"上海市松江区松江路1388号东明国际商城1层","购物;超市"
"惠客多超市",31.038868,121.214433,"文诚路966号","购物;超市"
"华榕超市",31.048136,121.218036,"上海市松江区松江路1388号东明国际商城1层","购物;超市"
"好德便利店(文诚店)",31.038826,121.217647,"文诚路842号","购物;便利店"
"罗森便利店(文汇路店)",31.055815,121.224496,"文汇路180号(近松江大学城)","购物;便利店"
"好德便利店(学城店)",31.055771,121.222811,"上海市松江区文汇路228号","购物;便利店"
"世纪华联超市(梅家浜路店)",31.0583,121.234582,"上海市松江区梅家浜路1531号","购物;超市"
"全佳超市",31.039786,121.227083,"松江人民北路与南青路交叉口南","购物;超市"
"北京联华超市(通跃店)",31.039451,121.238638,"南青路与通跃路交叉口南80米","购物;超市"
"吉源",31.060503,121.236803,"上海市松江区梅家浜路1500弄1-40号三湘四季花城财富广场1层","购物;超市"
"爱百分便利店(龙湖好望山店)",31.062327,121.232402,"龙马路云清路5号(远畅汽车服务，茱莉叶舞蹈楼下)","购物"
"超拔超市",31.060575,121.233722,"龙马路118弄三湘风情街3号","购物;超市"
"宜源超市(三湘风情店)",31.060184,121.234638,"上海市松江区梅家浜路1500弄1-40号三湘四季花城财富广场1层","购物;超市"
"亚美超市NO.001",31.039728,121.21773,"上海市松江区方松街道江学路555弄14号","购物;超市"
"金佳超市",31.058092,121.235506,"上海市松江区","购物;超市"
"湘季超市",31.061007,121.236893,"上海市松江区梅家浜路1500弄1-40号三湘四季花城财富广场1层","购物;超市"
"天天特价购物超市",31.060184,121.234638,"方松街道龙马路118弄52号底层","购物;超市"
"超拨超市",31.058342,121.236631,"上海市松江区梅家浜路1500弄1-40号三湘四季花城财富广场1层","购物;超市"
"罗森便利店(松江大学城1号店)",31.055839,121.213965,"上海市松江区文汇路672号","购物;便利店"
"全佳超市",31.048767,121.217232,"上海市松江区松江路1388号东明国际商城1层","购物;便利店"
"喜士多便利店(嘉松南路)",31.06013,121.238177,"嘉松南路1653-1655","购物;便利店"
"快客便利店(no.1168)",31.04472,121.22686,"新松江路907号附近","购物;便利店"
"可的便利店(西林店)",31.044428,121.221328,"新松江路江南超市对面","购物;便利店"
"快客便利店(no.6880)",31.044412,121.22118,"江学路788弄68号","购物;便利店"
"易捷便利店(三湘四季花城东)",31.062166,121.237949,"嘉松南路1665号(三湘四季花城东)","购物;便利店"
"快客便利店(no.6892)",31.047344,121.223344,"新松江路1188弄99号","购物;便利店"
"百果园(第682家分店)",31.059543,121.236752,"上海市松江区梅家浜路1500弄1-40号三湘四季花城财富广场1层","购物;超市"
"喜士多便利店",31.047219,121.217468,"上海市松江区松江路1388号东明国际商城1层","购物;便利店"
"可的便利店(松江文汇西店)",31.055928,121.215347,"上海市松江区松江大学城文汇路718号樱花广场1层","购物;便利店"
"阳光果园",31.059968,121.236948,"上海市松江区梅家浜路1500弄1-40号三湘四季花城财富广场1层","购物;超市"
"教育超市(文翔路店)",31.054616,121.222599,"文翔路1900号上海对外贸易学院松江校区内","购物"
"忠义蔬果商行",31.060297,121.236291,"龙马路118弄附近","购物;超市"
"易捷便利店(锦桂苑西北)",31.045458,121.238004,"方松街道(锦桂苑西北)","购物;便利店"
"屈臣氏(上海松江开元店)",31.044498,121.227694,"上海市松江区新松江路926号开元・地中海商业广场1层","购物;商铺"
"新世纪甜点",31.06019,121.215418,"广富林路2793号上海工程技术大学松江校区","美食;蛋糕甜品店"
"全佳",31.058034,121.235695,"梅家浜路1509号","购物;便利店"
"友谊超市",31.044154,121.223265,"新松江路","购物"
"星辰百货",31.060303,121.234421,"上海市松江区梅家浜路1500弄1-40号三湘四季花城财富广场1层","购物;便利店"
"光明便利店(南部阳光翠庭东)",31.044728,121.222821,"西林北路与新松江路交叉口西侧(南部阳光翠庭东)","购物;便利店"
"100%爱百分(松江店)",31.061926,121.232774,"云清路5","购物;便利店"
"8days",31.049134,121.216903,"新松江路1292弄160","购物"
"雅煜美的制冷专卖店",31.039716,121.217961,"江学路555弄8号","购物;超市"
"雨鑫食品商店",31.044405,121.220385,"上海市松江区方松街道江学路788弄42号","购物;便利店"
"正方百货",31.038865,121.217992,"江学路555弄122号","购物"
"日用百货",31.039667,121.217973,"江学路557号附近","购物"
"乐蜀百货",31.039122,121.219967,"文诚路500弄6号105室","购物"
"名迪平价百货中心",31.060184,121.234638,"上海市松江区梅家浜路1500弄1-40号三湘四季花城财富广场1层","购物"
"维廉商品",31.061821,121.232588,"云清路9号","购物"
"自由自在进口食品专卖店",31.047121,121.218056,"新松江路1292弄东明广场1-98号（肥猫餐厅楼下）(江学路)","购物"
"金百合水果大卖场",31.055798,121.222339,"广富林街道文汇路240号","购物;超市"
"金芙蓉果品超市(新松江路店)",31.044706,121.220305,"上海市松江区松江路1388号东明国际商城1层","购物;超市"
"巨口食品店",31.048823,121.216934,"新松江路1292弄157号","购物"
"金顺美果品超市(新城店)",31.044689,121.222392,"新松江路1081号","购物;超市"
"惠康园生鲜超市",31.039537,121.217241,"江学路555弄19～21号","购物;超市"
"盛香果品超市",31.061442,121.232884,"梅家浜路与龙马路交叉口北200米","购物;超市"
"三湘农夫果园",31.060266,121.235848,"上海市松江区梅家浜路1500弄1-40号三湘四季花城财富广场1层","购物;超市"
"华联超市（广富林店）",31.065288,121.236084,"广富林路1518弄622号、625号1-2层","购物;超市"
"佘山溪语商业广场",31.066986,121.215711,"上海市松江区广富林路","购物;超市"
"如海超市(广富林路店)",31.065113,121.237096,"广富林路1518弄-642-643","购物;超市"
"福宜便利店",31.065215,121.236473,"广富林路1518弄(近绿地蔷薇九里步行街)","购物;便利店"
"万众五金百货",31.065224,121.236493,"广富林路1518弄628号","购物"
"易捷便利店(上海世茂佘山艾美酒店南)",31.094233,121.214423,"佘山镇外青松公路9609","购物;便利店"
"欢乐Shopping",31.101086,121.220677,"上海市松江区佘山林湖路888号欢乐谷欢乐海洋内","购物;便利店"
"海洋商店",31.101677,121.219275,"上海市松江区佘山林湖路888号欢乐谷欢乐海洋内","购物;便利店"
"地铁便利",31.091272,121.236998,"沈砖公路与嘉松南路交叉口南","购物"
"海星商店",31.102103,121.219366,"上海市松江区佘山林湖路888号欢乐谷欢乐海洋内","购物;便利店"
"欢乐车吧",31.102453,121.225044,"上海市松江区佘山林湖路888号欢乐谷欢乐时光内","购物;便利店"
"月湖嘉年华-售品部",31.109939,121.215295,"上海市松江区","购物"
"金矿小店",31.101679,121.220759,"上海市松江区佘山林湖路888号欢乐谷金矿镇内","购物;便利店"
"月湖小店",31.109418,121.218433,"上海市松江区","购物"
"泗凯世纪华联超市",31.11547,121.237303,"佘山镇泗凯路55号","购物;超市"
"DIG进口商品直销中心(米格广场店)",31.156396,121.235998,"嘉松公路5999号米格天地2层","购物;超市"
"联华超市(仿夏村)",31.15574,121.228122,"赵巷镇沪青平公路2933弄11号","购物;超市"
"锦虹超市",31.161951,121.21393,"赵巷村居委会395-1号","购物;超市"
"蓝天超市",31.156687,121.227279,"上海市青浦区沪青公路2993弄10号","购物;超市"
"水站利旺百货",31.159646,121.238844,"沪青平公路2782弄附近","购物;便利店"
"金叶便利店NO.S047",31.155538,121.221867,"上海市青浦区","购物;便利店"
"永盛烟杂店",31.158794,121.224603,"沪青平公路和垂姚路的交叉口附近","购物;便利店"
"家佳福超市",31.153452,121.222629,"方西路与G50沪渝高速交叉口北150米","购物"
"永红超市",31.159286,121.22446,"赵巷镇沪青平公路3098号","购物"
"孙凤英 日用百货",31.159646,121.238844,"赵巷镇沪青平公路2782弄11号","购物"
"林居景观超市",31.158654,121.223119,"垂姚路与沪青平公路交叉口西150米","购物"
"联星平价超市",31.187077,121.215561,"凤溪镇杨家庄联星村","购物;超市"
"世纪华联超市(崧泽大道)",31.178752,121.230703,"华新镇白马塘村187号","购物;超市"
"上海润华超市",31.186764,121.232243,"凤溪镇","购物;超市"
"五福超市",31.186597,121.231116,"华新镇白马塘村156号","购物;超市"
"嘉联超市(芦沈店)",31.17205,121.215138,"赵巷镇沈泾塘村36号","购物;超市"
"易捷便利店(上海奥特莱斯品牌直销广场西北)",31.163776,121.232174,"嘉松中路5710号","购物;便利店"
"金叶便利店NO.S087",31.16436,121.224269,"上海市青浦区","购物;便利店"
"金叶便利店",31.177198,121.215836,"芦沈路181号附近","购物;便利店"
"白马塘便利店",31.18703,121.231611,"白马塘一路143号","购物;便利店"
"白马塘平价粮油店",31.186964,121.23126,"白马塘一路143号","购物;超市"
"沃天玛特",31.205085,121.234111,"凤中路249号","购物;超市"
"联华超市(北青店)",31.20254,121.23793,"上海市青浦区凤中路21号","购物;超市"
"新世纪华联(白马塘二路)",31.194653,121.231294,"上海市青浦区嘉松中路4483弄130号","购物;超市"
"农工商超市(凤中路)",31.203933,121.236622,"凤溪镇凤中路128号院内3号楼","购物;超市"
"如海购物中心",31.194488,121.223801,"嘉松中路4188弄250号(近杨家庄路)","购物;超市"
"联华超市(凤星路店)",31.21014,121.238132,"上海市青浦区凤星路1158~1162号","购物;超市"
"世纪华联超市(叙中店)",31.213442,121.220337,"上海市青浦区叙北路545~551号临","购物;超市"
"惠优玛特",31.206597,121.23256,"上海市青浦区","购物;超市"
"如海超市(NO.2208)",31.207308,121.23011,"凤北路易帮旁","购物;超市"
"世纪华联超市(凤北路店)",31.207389,121.228403,"凤中路226号(近凤北路)","购物;超市"
"如海超市",31.209621,121.238685,"新凤南路与凤星路交叉口旁","购物;超市"
"新上海如海超市",31.201665,121.227487,"上海市青浦区嘉松中路3848附近","购物;超市"
"海伦超市",31.205877,121.233395,"华新镇凤中路300号","购物;超市"
"世纪华联超市",31.202631,121.236542,"华新镇三星街88号","购物;超市"
"世纪华联NO.1188",31.193984,121.224825,"上海市青浦区嘉松中路4188弄265~271号","购物;超市"
"美惠全连锁超市",31.209386,121.235167,"凤友路和古思浜南路的交叉口附近","购物;超市"
"百货超市",31.196626,121.226917,"嘉松中路4200附近","购物;超市"
"易生活连锁超市(NO.168)",31.202933,121.233131,"上海市青浦区","购物;超市"
"世纪华联",31.206067,121.216148,"上海市青浦区环农科院路","购物;超市"
"好又多超市(杨家庄店)",31.193109,121.222425,"嘉松中路4188弄382号","购物;超市"
"世纪华联杨家庄店",31.194088,121.228189,"杨家庄村239号附近","购物;超市"
"金叶超市(凤溪店)",31.204947,121.234204,"凤溪镇","购物;超市"
"金湖世纪华联超市",31.209748,121.23772,"上海市青浦区凤星路1228号","购物;超市"
"空压机平价超市",31.199068,121.234928,"北青公路4827附近","购物;超市"
"好邻居百货超市",31.206956,121.236155,"凤星路1387","购物;超市"
"一世纪超市",31.207389,121.228403,"凤溪镇凤中路520号对面","购物;超市"
"好又多(no.706)",31.207925,121.229218,"凤中路488号临附近","购物;超市"
"好又多超市",31.209204,121.236506,"凤育路与新凤中路交叉口南","购物;超市"
"一元起百货超市",31.20653,121.235639,"上海市青浦区","购物;超市"
"蔬果超市",31.210956,121.225373,"华新镇叙北路800弄","购物"
"昆仑好客",31.19096,121.230318,"凤溪镇","购物;便利店"
"惠客多便利",31.199128,121.234835,"北青公路4861号","购物;便利店"
"快客便利店(no.6661)",31.208317,121.23683,"华新镇凤星路1302号","购物;便利店"
"惠客多便利",31.189975,121.229452,"嘉松中路4588号","购物;便利店"
"易家利超市",31.196564,121.226051,"嘉松中路4188弄24号","购物"
"金叶便利(NO.058)",31.209711,121.235459,"凤星路兴隆批发部旁","购物;便利店"
"杰缘食品房",31.210779,121.23833,"凤星路1162号附近","购物;便利店"
"便利店",31.199619,121.227059,"嘉松中路4050","购物;便利店"
"中桥综合商店",31.206225,121.23211,"凤中路333号365号","购物;便利店"
"俞根荣综合商店",31.205107,121.234767,"凤星路1495号","购物;便利店"
"金叶便利店  ",31.194877,121.224343,"杨家庄中心大道118号","购物;便利店"
"全家福超市",31.195183,121.232005,"嘉松中路4555号","购物;便利店"
"兴达副食品商行",31.206085,121.232338,"凤友路凤中路路口附近","购物;便利店"
"小陈杂货商店",31.210882,121.238584,"凤星路1118号","购物;便利店"
"金叶便利(NO.013)",31.210788,121.23833,"凤星路兴隆批发部旁","购物"
"兴喜食品商店",31.21123,121.235778,"新凤中路1792号附近","购物;便利店"
"亚康烟杂店",31.203075,121.235403,"上海市青浦区三星街123弄-97号","购物"
"琪琪一元起价百货超市",31.202201,121.236889,"三星街65号","购物"
"黎明杂货店",31.201156,121.237656,"坚强路北青公路路口附近","购物;便利店"
"新岚杂货经营部",31.210176,121.237126,"新凤中路露露鲜花盆景旁(沙县小吃对面)","购物;便利店"
"阿国杂货店",31.20702,121.236344,"凤星路1384号附近","购物;便利店"
"赵苏芳杂货店",31.209875,121.238276,"凤溪新凤南路3号","购物;便利店"
"青浦凤溪青春杂货店",31.200477,121.236704,"北青公路4729号","购物;便利店"
"爱珍杂货店(凤星路店)",31.208393,121.236904,"凤星路1272号附近","购物;便利店"
"宝良杂货店",31.201974,121.238006,"北青公路4624号附近","购物;便利店"
"零食铺(凤溪店)",31.204952,121.234278,"凤中路凤星路路口附近","美食;小吃快餐店"
"好新鲜蔬菜超市",31.200036,121.238834,"坚强路重庆切面旁","购物;超市"
"凤溪兴达批发部",31.20611,121.232439,"凤中路315号","购物"
"金客隆",31.203145,121.237763,"凤中路52","购物"
"鹏亮果业",31.209479,121.238202,"新凤南路16号附近","购物;超市"
"青浦凤溪永燕日用百货经营部",31.209117,121.237804,"上海市青浦区","购物"
"好乐多超市",31.236976,121.220239,"华新镇华志路1295弄65号(近嘉松中路)","购物;超市"
"嘉联超市(华志路店)",31.237221,121.216707,"华志路附近","购物;超市"
"华联超市(水乡店)",31.231101,121.233068,"华新镇新谊村","购物;超市"
"好又多(叙中村店)",31.22058,121.220634,"上海市青浦区","购物;超市"
"如海超市(NO.2288)",31.237541,121.23026,"华志路869","购物;超市"
"世纪华联超市(叙北路)",31.215479,121.21718,"上海市青浦区叙北路273~277号临","购物;超市"
"世纪华联超市(中二店)",31.217981,121.215979,"上海市青浦区叙北路130、132号临","购物;超市"
"华漪超市(no.588)",31.231176,121.232751,"上海市青浦区","购物;超市"
"联有超市",31.236468,121.233715,"华新镇新凤中路333号E区1栋111室","购物;超市"
"购物超市长浜经营部536号",31.228345,121.225919,"朱长村长浜536号","购物;超市"
"如海超市",31.23305,121.233082,"上海市青浦区","购物;超市"
"好又多超市",31.218223,121.215818,"叙北路112临","购物;超市"
"快客便利店(华志路店)",31.237588,121.231565,"华志路803","购物;便利店"
"华隆便利店",31.226766,121.226403,"华隆路1576号","购物;便利店"
"金叶便利(NO.137)",31.2376,121.237815,"华志路555号B区4幢107","购物"
"嘉诚超市(1号店)",31.236105,121.234379,"华新镇新凤中路555号d17幢","购物"
"易捷便利店(长浜)",31.221929,121.224258,"嘉松中路2688","购物;便利店"
"美美超市",31.237861,121.235132,"华志路555号","购物;便利店"
"小勒批发部",31.237703,121.2319,"华志路801附近","购物;便利店"
"朋联国际购物中心",31.247264,121.237239,"上海市青浦区华强街","购物;超市"
"上海朋联超市(华新店)",31.252084,121.224801,"华新镇","购物;超市"
"华联超市(华新街店)",31.25109,121.232464,"上海市青浦区华新街401号","购物;超市"
"联华超市(华新店)",31.249351,121.233119,"上海市青浦区华富街433号","购物;超市"
"好又多(华腾店)",31.241463,121.215996,"上海市青浦区华腾路1669号6幢附近","购物;超市"
"农工商超市(华新店)",31.24662,121.232709,"华强街与新益路交叉口西","购物;超市"
"世纪华联超市",31.259633,121.217699,"华新镇马阳村马桥6号","购物;超市"
"金叶超市(华新店)",31.252162,121.228445,"青浦区纪鹤公路新华旅馆旁","购物;超市"
"福乐佳超市(新协路店)",31.253522,121.21593,"青浦区纪白公路(近新协路)","购物;超市"
"正阳超市",31.252757,121.222536,"上海市青浦区纪鹤公路2928弄-55号","购物;超市"
"喜事多超市",31.242746,121.231645,"华腾公路887临","购物;超市"
"上海如海华新店",31.258182,121.22836,"新凤北路842","购物;超市"
"华苑商场",31.251216,121.230495,"华新街486-488号","购物;超市"
"芙蓉兴盛超市",31.250714,121.228523,"华新街599附近","购物;超市"
"华新良元杂货店",31.251048,121.236282,"新府北路44","购物;超市"
"雷池超市",31.260097,121.217022,"上海市青浦区","购物;超市"
"新胜华联黄渡宝丰店",31.261937,121.222772,"宝丰东路62号附近","购物;超市"
"快客便利店(no.1364)",31.249214,121.231176,"华富街531号","购物;便利店"
"建华小超市",31.250989,121.228596,"新凤北路与华新街交汇口","购物;超市"
"成欣便利超市",31.242746,121.231645,"华腾公路887临","购物;超市"
"华新供销社便民超市",31.25964,121.217561,"嘉松中路455弄附近","购物;超市"
"华联超市(NO.567店)",31.251216,121.230495,"上海市青浦区华新街482~488号","购物;超市"
"快客便利店(no.5439)",31.244211,121.237864,"华新镇新府中路1668-1670号","购物;便利店"
"博秦便利店",31.252748,121.215359,"上海市青浦区新协路1985号附近","购物;便利店"
"章君杂货店",31.252155,121.229971,"华昌路(近纪鹤公路)","购物;超市"
"大亨便利商店",31.247797,121.220805,"上海市青浦区嘉松中路1138-1号","购物;便利店"
"乐乐杂货店",31.251067,121.235527,"华新街259号","购物;超市"
"伟良烟杂店",31.252218,121.229545,"纪鹤公路2523号附近","购物;便利店"
"华苑批发部",31.249383,121.233328,"华富街423号","购物;便利店"
"易捷便利店(建安小区西)",31.252439,121.220744,"嘉松中路849临","购物;便利店"
"十八小时便利店",31.251631,121.236658,"华新街169","购物;便利店"
"伟金百货商店",31.253553,121.229643,"上海市青浦区新凤北路582号","购物;便利店"
"小曹杂货批发",31.25146,121.228297,"华新・新市路附近","购物;便利店"
"1元2元起超市",31.251543,121.230236,"华新镇新凤北路452号","购物"
"小平杂货店(华富街)",31.25013,121.236561,"华富街262号附近","购物;便利店"
"金叶便利(NO.154)",31.258482,121.22827,"上海市青浦区","购物"
"菊芳杂货店(新益路店)",31.250579,121.232078,"新益路455号附近","购物;便利店"
"伍缘折扣(华强景苑东南)",31.24664,121.232477,"华强街613号(华强景苑东南)","购物;便利店"
"博好购物中心(华新店)",31.252126,121.22503,"纪鹤公路2788号","购物"
"小平杂货店",31.250084,121.23654,"华富街262号","购物"
"新龙干货",31.256923,121.228232,"华新镇新凤北路713号","购物"
"新盈烟糖食品店",31.250489,121.232096,"新益路455号附近","购物"
"如海超市(春荣路)",31.273618,121.232252,"黄渡镇春荣路799弄","购物;超市"
"联华超市(黄渡店)",31.2729,121.221818,"上海市嘉定区绿苑路5号","购物;超市"
"联华超市(同济大学店)",31.284441,121.217806,"上海市嘉定区曹安公路4800号同济大学嘉定校区嘉实・同济新天地s101","购物;超市"
"威洋石材大板超市",31.279994,121.230039,"曹安公路4583号","购物;超市"
"华联超市(家超店)",31.276244,121.214936,"上海市嘉定区嘉松北路7224号","购物;超市"
"好又多超市NO.3968店",31.270331,121.216554,"上海市嘉定区新黄路142号西2间","购物;超市"
"华联超市(春荣店)",31.274024,121.23273,"黄渡镇春荣路800弄69号","购物;超市"
"如海超市(华象路店)",31.263911,121.225863,"千秋路11号(近华象路)","购物;超市"
"好又多超市",31.282747,121.223908,"上海市嘉定区","购物;超市"
"鑫鑫超市(NO.078)",31.27064,121.217718,"黄渡镇罗家村347-107号附近","购物;超市"
"千秋桥超市",31.264477,121.225724,"千秋桥路36附近","购物;超市"
"新大洲超市",31.263883,121.21546,"华新镇嘉松中路221号","购物;超市"
"嘉联超市(东街新路)",31.275276,121.227371,"东街新路附近","购物;超市"
"乐乐超市(许家村路)",31.271366,121.232464,"许家村路附近","购物;超市"
"惠民超市(许家村店)",31.27122,121.222523,"黄渡镇许家村15","购物;超市"
"中北百货超市",31.275636,121.228161,"东街新路附近","购物;超市"
"易购超市(黄渡镇文化广播电视管理中心南)",31.267665,121.22145,"博园路5033号(黄渡镇文化广播电视管理中心南)","购物;超市"
"华新超市东街店",31.276477,121.233817,"上海市嘉定区","购物;超市"
"中优美超市",31.263835,121.223904,"宝丰路28号","购物;超市"
"谢顾超市",31.277633,121.235645,"上海市嘉定区曹安公路4523附近","购物;超市"
"佳联超市",31.264473,121.22573,"黄渡镇","购物;超市"
"富饶便利超市",31.264415,121.225394,"千秋桥路18附近","购物;超市"
"伊之家超市",31.268486,121.224162,"黄渡东港路111号","购物;超市"
"义乌百货",31.271129,121.21969,"新黄路91附近","购物;便利店"
"福嘉便利店",31.263833,121.221101,"上海市嘉定区","购物;便利店"
"快客便利店(黄渡店)",31.277253,121.218935,"外岗镇外青松公路178-3号","购物;便利店"
"易捷便利店(协通路)",31.283337,121.225204,"曹安公路4680","购物;便利店"
"上海友盛批发",31.271862,121.213981,"黄渡罗家村停车场28-29号","购物;便利店"
"金湖便利店",31.265239,121.223649,"黄渡镇华浦路千秋桥56号","购物;便利店"
"佳佳便利店",31.273935,121.218958,"黄渡镇绿苑支路100号","购物;便利店"
"黄渡砖桥合作杂货商店",31.270845,121.219161,"佛阁弄附近","购物;便利店"
"彬彩批发部",31.270445,121.21729,"新黄路138号","购物;便利店"
"黄渡供销社调拨批发部",31.271306,121.221236,"劳动街46号附近","购物;便利店"
"忠诚果业",31.274235,121.216522,"罗家村路342附近","购物;超市"
"佳乐超市",31.267802,121.223881,"黄渡镇钱家村166号","购物"
"秀娟杂货店",31.27497,121.220492,"黄渡镇绿苑路1-2号","购物;便利店"
"康华食品商行",31.27663,121.215649,"嘉松北路7198号","购物;便利店"
"凤英杂货店(绿苑三西北)",31.276516,121.219472,"绿苑路233号","购物;便利店"
"炜意杂货店",31.276709,121.219348,"绿苑路241号","购物;便利店"
"才军杂货店",31.263951,121.225907,"千秋桥路11号-1室","购物;便利店"
"佳秒杂货店",31.283743,121.224712,"曹安公路4683附近","购物;便利店"
"社兴杂货店",31.274135,121.216939,"安亭镇黄渡菜市场吉亚路358号","购物;便利店"
"家利杂货店",31.279997,121.221183,"上海市嘉定区","购物;便利店"
"彬彬酒业",31.273744,121.218802,"柴家弄与绿苑支路交叉口东北50米","购物;商铺"
"益民副食品超市",31.273583,121.232675,"安亭镇春荣路784号","购物"
"惠忠商行",31.283874,121.217006,"黄渡镇黄沈村437号","购物"
"丽华杂货店",31.273482,121.223676,"新黄西路5号附近","购物"
"绿园蔬菜水果便利店",31.273516,121.232671,"春荣路786附近","购物;便利店"
"联华超市(同济加盟店)",31.293132,121.222729,"曹安公路4800号同济大学嘉定校区嘉实・同济新天地S101","购物;超市"
"先锋超市",31.310823,121.222203,"嘉定区先锋路388号","购物;超市"
"易购超市",31.293252,121.236561,"黄渡工业园杨林路515号","购物;超市"
"世纪华联超市(春归路)",31.294337,121.229849,"安亭镇嘉松北路6123号","购物;超市"
"好又多超市",31.292787,121.233145,"上海市嘉定区","购物;超市"
"好又多超市",31.30048,121.226163,"上海市嘉定区谢春路1650弄58号","购物;超市"
"惠众超市",31.309665,121.221098,"先锋路388号附近","购物;超市"
"教育超市",31.29307,121.223592,"嘉松北路6128号","购物;超市"
"欣荣超市",31.300206,121.225107,"谢春路696附近","购物;超市"
"全家便利店(嘉松北路店)",31.293491,121.226685,"嘉松北路6130弄189号嘉实生活广场1905室","购物;便利店"
"世纪华联超市",31.292844,121.232773,"上海市嘉定区嘉松北路6128号S134","购物;超市"
"幸福超市",31.300152,121.225727,"谢春路1717附近","购物;超市"
"嘉和超市",31.301521,121.213932,"谢春路280号附近","购物;超市"
"顺和平价超市",31.294336,121.229849,"嘉松北路6123附近","购物;超市"
"罗森便利店(同济大学店)",31.293275,121.223171,"曹安公路4800号同济大学嘉定校区嘉实・同济新天地S137","购物;便利店"
"安亭镇老宅杂货店",31.294099,121.229871,"春归路和嘉松北路的交叉口附近","购物;便利店"
"德升杂货店",31.292424,121.232763,"黄度镇谢春路999号","购物;便利店"
"秋明杂货店",31.312283,121.230506,"翔方公路3010号","购物;便利店"
"月琴杂货店",31.312284,121.230507,"翔方路3018附近","购物;便利店"
"水果超市",31.293009,121.22301,"曹安公路4800号同济大学校区嘉实新天地商业街(近申通快递)","购物;超市"
"小李菜店",31.294415,121.229842,"嘉松北路与春归路交叉口北100米","购物;超市"
"欧特福超市(安亭店)",31.321779,121.222311,"安亭镇宝安公路4555号","购物;超市"
"华联超市(NO.1307店)",31.32181,121.233793,"方陆路华联超市旁(唐韵大厦东南)","购物;超市"
"易买购超市",31.316355,121.238742,"泰云路295弄10号","购物;超市"
"欧得隆(方泰店)",31.323866,121.222013,"上海市嘉定区","购物;超市"
"农工商超市(花园浜路)",31.322325,121.223547,"宝安公路4535-4537号(花园浜路口)","购物;超市"
"新华联超市",31.318689,121.226426,"方南路226","购物;超市"
"上海豪申超市货架厂",31.316251,121.23842,"方陆路470号","购物;超市"
"好得利超市(泰东店)",31.328138,121.229016,"东环路271-273号","购物;超市"
"零点超市",31.319665,121.236759,"方德路200弄183号","购物;超市"
"莲花超市(泰富路店)",31.322922,121.227494,"泰顺路76-78号","购物;超市"
"新世纪超市(宝中路店)",31.322025,121.217216,"宝中路19号","购物;超市"
"好易得超市",31.320704,121.234565,"方陆路安泰电玩城对面","购物;超市"
"好家福超市(方泰店)",31.327088,121.224104,"方中路骏逸车行斜对面","购物;超市"
"联佳超市",31.322994,121.227424,"泰富路153号","购物;超市"
"巨祥超市",31.319632,121.222932,"泰顺路221号","购物;超市"
"易捷便利店(安晓路店)",31.336483,121.228825,"方泰镇(近安晓路)","购物;便利店"
"华清超市",31.327975,121.229147,"东环路261号","购物;超市"
"闽祥超市",31.320932,121.22923,"泰富路19号","购物;超市"
"同发超市",31.327263,121.223803,"方中路好家福超市旁","购物;超市"
"易捷便利店(唐韵大厦东)",31.323772,121.23688,"宝安公路4205","购物;便利店"
"上海市嘉定区安亭镇彩虹杂货店",31.327496,121.224381,"方中路60","购物;超市"
"快客便利店(方中店)",31.326478,121.222759,"方泰镇嘉凇北路4193号底层","购物;便利店"
"迪亚天天(方陆路)",31.321158,121.234178,"方陆路179号","购物;便利店"
"安亭镇日用品商店",31.324599,121.225865,"泰富路237号","购物;便利店"
"联合一百",31.321336,121.234,"安亭镇方泰五金城方陆路171号","购物;便利店"
"轩莉小百货店",31.324612,121.225847,"泰富路235号","购物;便利店"
"上海方泰供销有限公司早夜门市部",31.324527,121.226336,"泰富路216","购物;便利店"
"源源百货",31.326865,121.22332,"方中路80","购物"
"易捷便利店(泰盛公寓东北)",31.321827,121.227212,"嘉松北路4445","购物;便利店"
"勇勇劳防用品批发部",31.320951,121.234842,"方德路100弄191-192号","购物;便利店"
"漳浦(石前代销店)",31.320093,121.223249,"泰顺路208号","购物;便利店"
"魏源便利店",31.321573,121.22351,"宝安公路与花园浜路交叉口东南150米","购物;便利店"
"宇轩百货商店",31.325962,121.231526,"东环路百世物流旁","购物;便利店"
"世纪闽联超市",31.320264,121.234942,"方陆路209号","购物"
"上海市嘉定区安亭镇黎明杂货店",31.324572,121.221021,"花园浜路163","购物;便利店"
"上海市嘉定区安亭镇泰顺杂货店",31.321356,121.225922,"泰顺路85","购物;便利店"
"大众批发部",31.326416,121.224626,"泰富路344-346号","购物;便利店"
"会友劳防批发部",31.322214,121.235293,"方德路126号","购物;便利店"
"安亭镇莉娟杂货店",31.326865,121.22332,"方中路84号","购物;便利店"
"安亭镇冯华杂货店",31.315681,121.220831,"上海市嘉定区","购物"
"金鑫杂货店(花园新南)",31.322144,121.221639,"上海市嘉定区","购物;便利店"
"志英杂货店",31.326122,121.222151,"方泰镇方中路96","购物;便利店"
"紫荆杂货店",31.326383,121.2231,"方中路77弄77-3号","购物;商铺"
"炳荣杂货店",31.326031,121.222011,"方泰镇方中路98号","购物;便利店"
"卫星杂货店",31.325022,121.225451,"泰富路261","购物;便利店"
"惠英杂货店(方锦路)",31.324877,121.223525,"方锦路2号","购物;便利店"
"安亭镇福锦杂货店",31.325313,121.220891,"方中路108号附近","购物;便利店"
"家家杂货店",31.323919,121.226491,"泰富路钓友之家旁","购物;便利店"
"上海旭旭劳保用品批发部",31.321522,121.234143,"方德路100弄109-110号","购物"
"平价特鲜水果超市",31.316716,121.238092,"方陆路339附近","购物;超市"
"小胖什货店",31.324778,121.220888,"花园浜路175号","购物;便利店"
"自然甜水果超市",31.316266,121.238362,"上海市嘉定区方陆路349号","购物"
"方泰镇黎明杂货店",31.320289,121.224155,"泰顺路185","购物"
"世纪联华超市",31.358852,121.22072,"嘉安公路788号","购物;超市"
"申客隆超市",31.358755,121.219555,"彭门中心路附近","购物;超市"
"华隆超市",31.358772,121.22061,"六里村131号110室附近","购物;超市"
"嘉百超市六里店",31.354044,121.221202,"嘉定区嘉安公路1735号六里新家园","购物;超市"
"雨馨超市",31.359992,121.230509,"G15沈海高速附近","购物"
"易捷便利店(内环东路)",31.346954,121.231141,"内环东路(卡丁车世界工作楼东北)","购物;便利店"
"嘉定区菊园小区正有杂货店",31.358644,121.220292,"彭门中心路附近","购物;便利店"
"欧阳杂货店",31.354427,121.215945,"嘉安公路1885弄附近","购物;便利店"
"联华超市(柳梁路店)",31.384327,121.235011,"上海市嘉定区柳梁路62、64号","购物;超市"
"联华超市(平城路店)",31.387309,121.227209,"秋竹路与平城路交叉口旁","购物;超市"
"万客福超市",31.384338,121.23339,"柳梁路超级鸡车旁","购物;超市"
"天天超市",31.3838,121.235231,"柳梁路48号","购物;超市"
"易捷便利店(现龙)",31.369727,121.232636,"嘉安公路528号","购物;便利店"
"快客便利店(秋竹路)",31.386171,121.228085,"秋竹路616","购物;便利店"
"惠民超市(现龙店)",31.370226,121.233044,"现龙村251号附近","购物"
"菊明杂货店",31.372542,121.226006,"沪宜公路4860号附近","购物;便利店"
"豫淮杂货店",31.371927,121.237064,"嘉安公路373号","购物;便利店"
"嘉定庆丰经营部",31.371939,121.220499,"沪宜公路5021号","购物"
"晓唐蔬菜超市",31.365564,121.226526,"嘉安公路589号附近","购物;超市"
"如海超市",31.407921,121.215079,"娄塘镇汇旺东路1135号","购物;超市"
"华联超市(NO.3757店)",31.389813,121.232516,"上海市嘉定区平城路2016号","购物;超市"
"上海金佰福超市(泾河店)",31.403718,121.237369,"娄塘镇泾河村城北路祁迁路803号","购物;超市"
"联华超市(红石路店)",31.392544,121.231871,"红石路复美大药房旁","购物;超市"
"信侬超市",31.392152,121.232077,"红石路653号","购物;超市"
"易捷便利店(胜竹路)",31.39319,121.228174,"胜竹路3750","购物;便利店"
"阿彪超市",31.409895,121.23266,"城北路泾河村1458号","购物"
"宝菊水果大卖场",31.392444,121.231942,"红石路715号","购物;超市"
"华诚果业连锁超市(平城路店)",31.390148,121.233249,"上海市嘉定区","购物;超市"
"如海超市",31.43228,121.221511,"上海市嘉定区","购物;超市"
"好又多(南新路)",31.434076,121.222686,"娄塘镇南新路388-2号","购物;超市"
"华联超市(娄塘店)",31.437187,121.224686,"上海市嘉定区南新路200号附近","购物;超市"
"如海超市(邵宅店)",31.423748,121.233096,"娄塘镇泾河村邵宅168号112室附近","购物;超市"
"上海联佳华超市",31.423688,121.22605,"沥红路164号170号","购物;超市"
"华联超市(NO.2678店)",31.42384,121.233015,"上海市嘉定区嘉唐公路916号","购物;超市"
"云峰超市",31.438341,121.225573,"南新路21号附近","购物;超市"
"爱辰超市NO.12",31.429682,121.224219,"嘉唐公路1108号附近","购物;超市"
"阳光超市",31.435772,121.224952,"徐行镇娄塘路569号","购物;超市"
"乐享超市",31.425334,121.236563,"战斗路654号110室","购物;超市"
"诚立超市",31.436395,121.219862,"娄塘镇大北街222号","购物;超市"
"佳家乐超市",31.425458,121.236835,"战斗路654号103室","购物;超市"
"娄塘商场",31.433652,121.222557,"中大街42号","购物;便利店"
"娄塘集体商业总店(经营部)",31.4319,121.221675,"嘉唐公路1236-1242号附近","购物"
"易捷便利店(嘉唐公路)",31.430895,121.223295,"嘉唐公路1138号","购物;便利店"
"皖纵便利",31.432745,121.225152,"宝钱公路附近","购物;便利店"
"东风杂货商店",31.436765,121.224289,"南新路36号274号","购物;便利店"
"阿贵批发部",31.420638,121.236289,"娄唐镇嘉唐公路806号","购物;便利店"
"馨月网络综合便民点",31.437563,121.222029,"娄塘镇大北街69号","购物"
"浩远综合百货店",31.433508,121.222455,"南新路432号附近","购物"
"丽景杂货店",31.434284,121.223301,"茶庵街南新路路口附近","购物;便利店"
"俊龙杂货店",31.432685,121.225017,"宝钱公路附近","购物;便利店"
"五朵金花杂货店",31.434368,121.223391,"上海市嘉定区","购物;便利店"
"利群杂货店(大北街)",31.437806,121.222573,"大北街164号","购物;便利店"
"兰兰杂货店",31.433105,121.221993,"南新路816号1230号(娄朱公路)","购物;便利店"
"华生杂货店",31.436892,121.224433,"南新路36号274号","购物;便利店"
"月琴杂货店",31.436577,121.220591,"大北街179弄1号","购物"
"凤立炒货水果超市",31.436518,121.224596,"娄塘镇娄塘路608号","购物;超市"
"农工商超市(娄陆公路店)",31.4392,121.221727,"娄塘镇娄塘路828号","购物;超市"
"二宝百货超市",31.445521,121.217129,"娄陆公路321号附近","购物;超市"
"惠民超市(草庵店)",31.456611,121.22051,"草庵村486号临附近","购物;超市"
"福乐佳超市(娄塘镇)",31.440957,121.224109,"小东街171号","购物;超市"
"老五便利店",31.453442,121.229727,"嘉塘公路2260号","购物;便利店"
"兴隆百货",31.441329,121.220202,"娄陆公路附近","购物;便利店"
"惠民娄东店",31.440733,121.238876,"上海市嘉定区","购物"
"豫海超市",31.45231,121.222426,"娄塘镇草庵村3队390号","购物"
"永胜超市",31.456168,121.220793,"嘉定工业区娄塘镇草庵村329号","购物"
"嘉定工业区娄塘耀球杂货经营部",31.439837,121.220329,"嘉唐公路1755号","购物;便利店"
"小英杂货店",31.452923,121.222119,"嘉定工业区唐镇草庵村390号","购物"
"便民超市",31.456438,121.233567,"嘉唐公路南50米","购物"
"闽兴杂货经营部",31.440238,121.221066,"娄陆公路2号","购物;便利店"
"振东杂货店",31.446249,121.216581,"娄塘镇娄陆路336号","购物;便利店"
"东新杂货店",31.440508,121.224101,"娄塘镇小东街157号","购物;便利店"
"蜂莲花超市",31.023537,121.247519,"荣乐中路28号(荣乐东路荣乐中路)","购物;超市"
"华联超市(NO.1597店)",31.032558,121.241306,"上海市松江区谷阳北路902、904号","购物;超市"
"新世联华(NO.588)",31.018902,121.263579,"松东路80弄101","购物;超市"
"农工商超市(松乐店)",31.015798,121.244582,"松乐路125号","购物;超市"
"世纪华联超市(环城店)",31.016223,121.259475,"环城路575号","购物;超市"
"联华超市(谷阳北路店)",31.03027,121.241781,"上海市松江区谷阳北路932号","购物;超市"
"世纪华联超市(环城路店)",31.014658,121.26239,"永丰街道环城路366号格林豪泰对面","购物;超市"
"华联超市",31.016567,121.2624,"松东路250-252号","购物;超市"
"美惠全连锁超市NO.257",31.018986,121.262547,"松东路82","购物;超市"
"快优超市",31.034232,121.253935,"茸龙路与茸梅路交叉口旁","购物;超市"
"伍缘(松乐路店)",31.015804,121.244558,"松乐路119-125号","购物;超市"
"华源超市",31.016169,121.26207,"松东路19号101室1层","购物;超市"
"时代华联超市",31.022089,121.250536,"沪松路15-5","购物;超市"
"联华超市",31.018098,121.253884,"环城路878号","购物;超市"
"全家便利店(松东路店)",31.019434,121.262122,"松东路189号(近蓝天新村)","购物;便利店"
"华联超市(商良店)",31.029361,121.241752,"谷阳北路902-904","购物;超市"
"亿家超市",31.037508,121.254212,"五昆路150","购物;超市"
"时代联华超市",31.019715,121.248772,"环城路1158","购物;超市"
"剑刚超市",31.017183,121.256097,"松江环城路北内旅馆旁","购物;超市"
"世纪超市",31.013959,121.240606,"中山中路196弄46号","购物;超市"
"新世联华超市",31.015101,121.263104,"环城路386弄22号","购物;超市"
"世纪华联no.878",31.018156,121.253829,"环城路880号","购物;超市"
"8+8超市",31.020593,121.250225,"沪松路7临","购物;超市"
"联华超市(乐都路118弄小区东南)",31.019807,121.244569,"乐都路108-110","购物;超市"
"万客莱超市",31.019481,121.251882,"环城路976弄18号","购物;超市"
"良友超市(荣乐中路店)",31.022779,121.245927,"荣乐中路49号","购物;超市"
"新世纪超市",31.021545,121.262655,"松东路东开旅馆旁","购物;超市"
"全家便利店(乐都路店)",31.019236,121.239451,"乐都支路257(近谷阳北路)","购物;便利店"
"方舟超市",31.024371,121.246971,"荣乐中路10号好饰家(松江店)附近","购物;超市"
"丰硕超市",31.021646,121.254687,"上海市松江区方塔北路505号","购物;超市"
"丰华水果大卖场",31.036799,121.25315,"茸梅路137弄1-14号附近","购物;超市"
"雅帘窗帘超市",31.024063,121.247227,"荣乐中路12弄-92","购物;超市"
"生活良友(NO.0018)",31.030215,121.247833,"沪松路211号古树园商务楼1层","购物;超市"
"信宇超市",31.016502,121.255106,"方塔北路九峰实验学校旁","购物;超市"
"平价百货",31.019106,121.262556,"松东路98附近","购物;超市"
"易购便利超市",31.013758,121.262563,"松江环城路宏燕旅馆对面","购物;超市"
"好客超市",31.01569,121.243071,"谷阳北路38号之3-4号","购物;超市"
"新世纪超市(NO.386店)",31.015215,121.263041,"环城路386弄27","购物;超市"
"聚缘超市",31.022007,121.254539,"方塔北路505号附近","购物;超市"
"五梅烟杂店",31.037863,121.249588,"五昆路328号","购物;超市"
"快戈超市",31.032743,121.250345,"茸龙路257弄大江苑49号1东大门","购物;超市"
"夏联超市",31.024157,121.254477,"方塔北路质科商务中心旁","购物;超市"
"好德便利店(谷阳店)",31.015749,121.242589,"中山二路1","购物;便利店"
"快客便利店(no.6437)",31.022632,121.252551,"荣乐东路2369弄1号绿地伯顿广场1层","购物;便利店"
"好德便利店(松东店)",31.018788,121.262186,"松东路171-1","购物;便利店"
"快客便利店(松乐路店)",31.016079,121.244474,"松乐路112号","购物;便利店"
"元华超市",31.022801,121.257791,"荣乐东路2151临","购物;超市"
"易捷便利店(松江环城路)",31.015579,121.26199,"环城路499号","购物;便利店"
"光明便利(no.338)",31.030619,121.261223,"松东路与美能达路交叉口东200米","购物;便利店"
"祥和便利店(祥和居民区党员服务站东)",31.032513,121.242439,"祥和路168弄5号(祥和居民区党员服务站东)","购物;便利店"
"多多便利店",31.017791,121.239764,"乐都支路79号","购物;便利店"
"联合一百便利店",31.021023,121.262682,"松东路182号","购物;便利店"
"永意超市",31.022686,121.252451,"荣乐东路绿地伯顿广场","购物"
"好德便利店(谷乐店)",31.019745,121.243891,"乐都路126号","购物;便利店"
"光明便利店",31.024788,121.254445,"方塔北路夏联超市旁","购物;便利店"
"快客便利店(no.6278)",31.02505,121.243563,"松江镇谷阳北路526弄102号","购物;便利店"
"好德便利店(方舟园三村东)",31.024154,121.245613,"荣乐中路12弄149号(方舟园三村东)","购物;便利店"
"快客",31.021465,121.262654,"松东路216","购物;便利店"
"邻家超市",31.025294,121.241625,"上海市松江区","购物"
"全佳",31.019714,121.248772,"荣乐中路12弄178","购物;便利店"
"屈臣氏(松东路店)",31.021848,121.262256,"上海市松江区松东路217号101、103、105、107~111室;松东路217号颐思殿广场1层","购物;商铺"
"快客便利店(no.5233)",31.019016,121.246754,"菜花泾12号1楼","购物;便利店"
"屈臣氏(荣乐中路店)",31.023375,121.247127,"荣乐中路12弄底层15-18-54号","购物;商铺"
"易捷便利店(平高商业广场西)",31.020044,121.250068,"松江区沪松路3号(平高商业广场西)","购物;便利店"
"便利店",31.020102,121.250122,"袜子弄50号58号(平高商业广场西北)","购物;便利店"
"海客全天便利店",31.019808,121.243075,"上海市松江区","购物;便利店"
"客家便利店(NO.555)",31.02274,121.254286,"荣乐东路2339-1","购物;便利店"
"易捷便利店(沪松路店)",31.037333,121.262507,"中山街道(近沪松路)","购物;便利店"
"松江美易家便利店",31.025314,121.24599,"沪松路与美能达路交叉口西250米","购物;便利店"
"零食多便利店",31.021747,121.262123,"上海市松江区松东路217号颐思殿广场1层","购物;便利店"
"秀敏Go Go便利店",31.037578,121.251694,"上海市松江区五昆路25号-临","购物;便利店"
"松江种子冷饮批发部",31.019774,121.246651,"上海松江区乐都路30号","购物;便利店"
"便民商店",31.023324,121.245635,"荣乐中路24号48号(安乔休闲会所西北)","购物;便利店"
"蓓蕾烟杂商店",31.015471,121.239621,"中山二路121-1号","购物;便利店"
"杨记杂货店",31.022109,121.250891,"沪松路与荣乐东路交叉口南","购物;便利店"
"祥瑞超市",31.026806,121.251304,"松江区美能达路通达车行旁","购物;便利店"
"方兴烟杂便民店",31.01527,121.251033,"邱家湾30号","购物;便利店"
"亿联百分百超市",31.024305,121.254507,"方塔北路569号","购物"
"天天来杂货店",31.037635,121.251813,"五昆路322号326号","购物;便利店"
"辰辰食品经营部",31.025195,121.246119,"荣乐中路12弄275号乙","购物;便利店"
"多乐烟杂经营部",31.019955,121.240119,"乐都路228号","购物;便利店"
"茸梅杂货店",31.034315,121.254571,"茸梅路8号中山街道社会保障服务中心附近","购物;便利店"
"好第坊水果卖场",31.021175,121.262655,"松东路202号","购物;超市"
"华威水果大卖场",31.025463,121.245662,"荣乐中路复美大药房东侧","购物;超市"
"金芙蓉水果连锁超市(菜花泾店)",31.019825,121.244805,"乐都路96号","购物;超市"
"功观食品",31.021466,121.242965,"谷阳北路144-2","购物;便利店"
"春晖水果超市",31.032948,121.250061,"上海市松江区茸龙路257弄-49号","购物;超市"
"果然新鲜果品超市",31.024929,121.242992,"谷阳北路方舟园三村后门","购物;超市"
"金芙蓉果品连锁超市(中山路店)",31.01994,121.244795,"谷阳北路10号","购物;超市"
"日华水果超市",31.036789,121.253221,"上海市松江区","购物;超市"
"三佳水果超市",31.020293,121.244233,"乐都路16号","购物;超市"
"俊毅水果超市",31.015546,121.242994,"谷阳北路30-2附近","购物;超市"
"好廉多果业(中山二路分店)",31.015837,121.240642,"乐都支路72附近","购物;超市"
"好又多超市(松江店)",31.040257,121.253295,"上海市松江区茸梅路356~366号附近","购物;超市"
"农工商超市(北翠路店)",31.043187,121.24179,"北翠路158弄1-6号","购物;超市"
"时代华联超市(松江店)",31.040298,121.24017,"上海市松江区南青路256-1","购物;超市"
"联华超市(新松江路店)",31.044518,121.23981,"上海市松江区新松江路267-269号","购物;超市"
"乐家超市(茸北店)",31.039366,121.253449,"上海市松江区茸梅路296-302号中山广场1层","购物;超市"
"世纪华联(文翔路店)",31.048517,121.244015,"文翔路906号1044号","购物;超市"
"世纪华联超市(茸梅店)",31.042366,121.253316,"上海市松江区茸梅路518号施惠特・呈远商业广场1层","购物;超市"
"美惠全连锁超市(NO.128)",31.051048,121.242219,"谷阳北路2086号","购物;超市"
"新世纪华联(梅家浜路店)",31.05611,121.26388,"梅家浜路与茸惠路交叉口东北50米","购物;超市"
"世纪华联超市(开元店)",31.05217,121.252239,"中山街道茸梅路885弄1号","购物;超市"
"福好家超市",31.050038,121.260412,"施惠路259附近","购物;超市"
"华亭超市",31.041408,121.241771,"谷阳北路1570号","购物;超市"
"世纪华联超市",31.04435,121.239981,"上海市松江区新松江路259弄","购物;超市"
"瑞阳超市",31.039052,121.242115,"上海市松江区方松街道谷阳北路1470弄36号1层","购物;超市"
"绿蔬园农场超市",31.048568,121.24224,"文翔路1010号","购物;超市"
"华夏民生超市(松江店)",31.048559,121.244396,"文翔路920号","购物;超市"
"美惠全连锁超市",31.038502,121.241902,"上海市松江区谷阳北路1470弄1号永翔商业1层","购物;超市"
"有家小超市",31.043169,121.240033,"北翠路212号","购物;超市"
"快戈超市(茸平路店)",31.0399,121.262807,"茸平路奔腾电器直销店旁","购物;超市"
"悦活便利超市",31.038982,121.241009,"谷阳北路1425弄2号","购物;超市"
"德佰康超市",31.038568,121.255907,"茸梅路288弄89号","购物;超市"
"中铁特价超市",31.038821,121.253821,"茸梅路288弄80号","购物;超市"
"翔泓百货",31.038715,121.254785,"上海市松江区茸梅路296-302号中山广场1层","购物;超市"
"小周电器百货",31.039042,121.253488,"上海市松江区茸梅路296-302号中山广场1层","购物;超市"
"萍萍便利店",31.039127,121.241783,"上海市松江区谷阳北路1470弄1号永翔商业1层","购物;超市"
"好德便利店(翔峰店)",31.038488,121.240698,"谷阳北路1425弄26号","购物;便利店"
"昆仑好客便利店(茸平路)",31.040117,121.263719,"茸平路附近","购物;便利店"
"快客便利店(no.5503)",31.040409,121.255774,"上海市松江区茸平路福都广场1层","购物;便利店"
"嘿客",31.048112,121.240944,"方松街道文翔路1087号","购物"
"快客便利店(no.5127)",31.047987,121.2401,"上海市松江区文翔路1103号","购物;便利店"
"晓钦便利店",31.039601,121.239802,"南青路与通跃路交叉口东","购物;便利店"
"锦泰便利店",31.03882,121.253961,"上海市松江区茸梅路296-302号中山广场1层","购物;便利店"
"安康便利",31.039127,121.241783,"上海市松江区谷阳北路1470弄1号永翔商业1层","购物;便利店"
"好又快便利店",31.060565,121.239134,"上海市松江区","购物;便利店"
"萍萍便利店(梅家浜路)",31.057226,121.251516,"梅家浜路附近","购物;便利店"
"光明百货店",31.038485,121.2535,"茸梅路145号附近","购物;便利店"
"绿蕊园水果卖场",31.041338,121.24174,"谷阳北路1570号","购物;超市"
"金顺美果品超市",31.039747,121.252824,"茸平路与茸梅路交叉口南(近中山休闲广场)","购物;超市"
"盛香果品连锁超市",31.03856,121.242214,"谷阳北路1470弄61-2号","购物;超市"
"全顺美果品超市",31.039666,121.253062,"上海市松江区","购物;超市"
"易买得仓库",31.087162,121.253401,"上海市松江区洞泾镇洞薛路885号","购物;超市"
"世纪华联超市(淡家浜街)",31.066302,121.2502,"茸梅路每日鲜果东100米","购物;超市"
"联华超市(茸盛店)",31.070724,121.252635,"上海市松江区茸盛路566~572号(双)","购物;超市"
"联华超市(广富林路店)",31.069064,121.241335,"上海市松江区梅家浜路1500弄1-40号三湘四季花城财富广场1层","购物;超市"
"易生活超市",31.070829,121.252342,"茸盛路576号(近光星路)","购物;超市"
"联华超市西子湾店(谷阳北路)",31.064294,121.240656,"广富林路雅琪造型旁(绿地・蔷薇九里东南)","购物;超市"
"芙蓉兴盛便利超市",31.087473,121.263515,"洞业路与洞薛路交叉口东","购物;超市"
"好又多(广富林路店)",31.0642,121.24138,"上海市松江区广富林路1188号保利西子湾风情街1层","购物;超市"
"华联超市NO.2657",31.074089,121.250607,"上海市松江区辰花路","购物;超市"
"联华(保利西子湾店)",31.064299,121.240605,"上海市松江区广富林路1214","购物;超市"
"如海超市(洞薛路)",31.087471,121.263119,"洞业路与洞薛路交叉口旁","购物;超市"
"永盛百货超市",31.064397,121.241185,"上海市松江区广富林路1188号保利西子湾风情街1层","购物;超市"
"上海如海",31.070825,121.251883,"茸盛路596","购物;超市"
"云华百货超市",31.070905,121.251567,"茸盛路612","购物;超市"
"易捷便利店(怡林花园北)",31.074464,121.255437,"辰花路650号(怡林花园北)","购物;便利店"
"福宜便利",31.06491,121.249195,"黄渡浜街复美大药房旁","购物"
"茸城便利",31.070984,121.250409,"茸盛路662号(近光星路)","购物;便利店"
"西湾便利店",31.06428,121.24131,"上海市松江区广富林路1188号保利西子湾风情街1层","购物;便利店"
"鑫鑫超市",31.070872,121.251331,"茸盛路636号","购物"
"七彩梦幻",31.064447,121.240917,"上海市松江区广富林路1188号保利西子湾风情街1层","购物"
"西湾便利",31.064611,121.240442,"广富林路1188弄37","购物"
"爱家",31.064447,121.240917,"上海市松江区广富林路1188号保利西子湾风情街1层","购物"
"蔬果e家生鲜超市",31.064397,121.241185,"保利西子湾1184弄40号","购物;超市"
"西子湾果蔬超市",31.064422,121.241476,"上海市松江区广富林路1188号保利西子湾风情街1层","购物;超市"
"每日鲜果",31.067086,121.249252,"上海市松江区光星路","购物;超市"
"福海生活购物中心",31.087186,121.262302,"洞业路与洞薛路交叉口旁","购物"
"尚优玛特(泗泾镇店)",31.109668,121.240034,"上海市松江区古楼公路佘山湾生活购物广场1层","购物;超市"
"联华超市(琪惠店)",31.109792,121.240899,"上海市松江区古楼公路1856弄2号","购物;超市"
"世纪超市(洞舟路)",31.091125,121.261734,"洞舟路379","购物;超市"
"时代联华超市",31.111446,121.257783,"古楼公路大眼包子旁","购物;超市"
"全家便利店(古楼公路店)",31.109943,121.240503,"上海市松江区古楼公路佘山湾生活购物广场1层","购物;便利店"
"便民百货",31.109668,121.240035,"上海市松江区古楼公路佘山湾生活购物广场1层","购物;超市"
"华联超市(新家园路店)",31.110563,121.243682,"上海市松江区新家园路16号","购物;超市"
"捷全超市",31.110673,121.258927,"古楼公路959号","购物;超市"
"福家生活超市",31.113343,121.240849,"古楼公路1858弄37幢102-103号附近","购物;超市"
"联合一百(好又多超市店)",31.113113,121.242681,"泗泾镇新家园路181号(近好又多超市)","购物;便利店"
"新凯家园乐双杂货店",31.112781,121.243231,"新家园路156号","购物;超市"
"好德生鲜蔬菜超市",31.110462,121.253265,"泽悦路与古楼公路交叉口旁","购物;超市"
"联华超市(新家园路店)",31.113588,121.241684,"上海市松江区新家园路251弄2号","购物;超市"
"楠楷超市",31.118202,121.241516,"新家园路406","购物"
"莲花超市(方家窑店)",31.159513,121.239321,"赵巷镇沪青平公路2782弄30号","购物;超市"
"华联超市(和睦店)",31.158884,121.240266,"赵巷镇","购物;超市"
"联都超市",31.14937,121.24581,"方夏村210弄","购物;超市"
"联华超市(沪青平公路)",31.159387,121.239653,"上海市青浦区赵巷镇沪青平公路2772号","购物;超市"
"华朕超市和睦店",31.162657,121.246371,"上海市青浦区","购物;超市"
"华联超市(和睦店)",31.162746,121.24628,"赵巷镇(珠江国际・虹桥财富公馆东)","购物;超市"
"金叶便利店",31.141875,121.256615,"刘夏路388号附近","购物;便利店"
"金叶便利店",31.154793,121.243193,"方夏村方东445号附近","购物;便利店"
"易捷便利店(敦昌别墅西)",31.158274,121.250214,"赵巷镇沪青平公路2579","购物;便利店"
"高兴水果超市",31.157982,121.243329,"沪青平公路与赵巷方南路交叉口南100米","购物;超市"
"联合一百购物中心NO.沪2028",31.179704,121.251828,"徐乐路216","购物;超市"
"新世纪联华(迮庵路)",31.176883,121.26234,"徐经镇徐盈路迮庵小区141号后门","购物;超市"
"河畔生活超市",31.174439,121.249329,"上海市青浦区徐乐路99弄25号","购物;超市"
"家联超市(陆家角店)",31.179296,121.251707,"徐乐路68号","购物;超市"
"金叶便利店",31.168286,121.248246,"和睦村195号附近","购物;便利店"
"金叶便利(NO.191)",31.179574,121.251808,"徐乐路208号","购物"
"好又多(嵩山店NO:1089店)",31.205024,121.257404,"青浦区凤嵩路阳光餐厅西南70米","购物;超市"
"华朕超市",31.206931,121.246609,"上海市青浦区新木桥村63号附近","购物;超市"
"好又多超市嵩山店",31.20746,121.25917,"上海市青浦区北青公路3456号","购物;超市"
"好又多(坚强店)",31.197508,121.239114,"上海市青浦区凤溪镇凤雅路299弄50号","购物;超市"
"福万佳超市",31.207338,121.251469,"华新镇凤溪镇北青公路3789号","购物;超市"
"悦购超市",31.211553,121.239078,"凤星路凤兴宾馆对面","购物;超市"
"恒利超市",31.211596,121.23942,"凤星路1083","购物;超市"
"亿家源超市(全国连锁店)",31.202077,121.239064,"徐乐北路与北青公路交叉口旁","购物;超市"
"苏北批发部",31.211132,121.239184,"凤星路1121号附近","购物;便利店"
"金叶便利(NO.201)",31.201639,121.245789,"嵩山村478号附近","购物"
"凤溪嵩山杂货店",31.207516,121.258908,"北青公路与民兴二路交叉口西50米","购物"
"青浦凤溪华军杂货店",31.207516,121.258908,"上海市青浦区","购物"
"好又多(北新店)",31.221705,121.240152,"北新村新联596号附近","购物;超市"
"世纪联华超市",31.231503,121.260107,"华新镇纪秀路139号","购物;超市"
"好又多(民兴店)",31.215297,121.25306,"上海市青浦区","购物;超市"
"万客莱生活购物超市(民兴店)",31.219837,121.257927,"华徐公路3029弄58号临附近","购物;超市"
"如海超市",31.218234,121.244733,"上海市青浦区凤星路","购物;超市"
"嘉联超市(民兴大道)",31.220979,121.241015,"上海市青浦区民兴大道109号附近","购物;超市"
"佳和超市",31.21715,121.260059,"华徐公路3029弄39-2","购物;超市"
"仙美超市NO.598",31.218268,121.259098,"华徐公路3029弄61号附近","购物;超市"
"好又多(凤溪店)",31.218045,121.244386,"上海市青浦区北新村北葛88号附近","购物;超市"
"如海超市",31.230937,121.259276,"华新镇纪秀路163号","购物;超市"
"世纪华联超市(新联任家浜桥)",31.221463,121.240835,"华新镇北新村杨巷队171号","购物;超市"
"好又多超市",31.232186,121.261259,"上海市青浦区纪秀路105号临","购物;超市"
"平价超市(纪秀路)",31.231395,121.259332,"纪秀路附近","购物;超市"
"芳林超市",31.218271,121.259102,"华徐公路3029弄61号附近","购物;超市"
"旺禄进口休闲食品批发",31.228024,121.251287,"华隆路3833号西郊国际农产品交易中心E室厅156号(近华徐公路)","购物;便利店"
"易捷便利店(华隆路店)",31.22784,121.252897,"华新镇","购物;便利店"
"文文便利",31.214908,121.25238,"民兴大道109号附近","购物;便利店"
"怡悦便利",31.216107,121.246917,"北新村北葛65上海怡瑾箱包厂附近","购物;便利店"
"友援超市",31.22486,121.262167,"上海市青浦区","购物"
"合作五金日杂批发部",31.231883,121.260754,"上海市青浦区纪秀路117号-临","购物;便利店"
"万盛客购物中心",31.227836,121.254232,"新镇华徐公路3708号","购物"
"上海美佳乐超市NO.86",31.240681,121.254544,"上海市青浦区华徐公路4638弄496号","购物;超市"
"世纪华联超市(新谊店)",31.240242,121.247289,"华徐公路4587临","购物;超市"
"世纪华联超市(华徐公路4638弄)",31.240414,121.252669,"华徐公路4638弄458号(近沈海高速)","购物;超市"
"好又多(华益店)",31.259696,121.241088,"上海市青浦区华益路498","购物;超市"
"好又多(纪鹤路店)",31.247997,121.255845,"上海市闵行区纪鹤路847~853号临","购物;超市"
"世纪华联",31.253335,121.258165,"上海市闵行区鹫山村前毛家湾80号临","购物;超市"
"美惠全生活购物广场(华益店)",31.260602,121.244684,"华纪路2附近","购物;超市"
"易生活连锁超市(NO.108)",31.243088,121.254032,"华徐公路4638弄和纪鹤路1358弄的交叉口附近","购物;超市"
"如海超市(华纪路店)",31.251842,121.244312,"华纪路78号附近","购物;超市"
"联福超市",31.240596,121.25335,"华新镇华徐公路4638弄470号","购物;超市"
"嘉联超市",31.262555,121.246771,"华新镇华益村254号","购物;超市"
"华灿超市",31.250463,121.242512,"华新镇纪鹤公路1688号1楼","购物;超市"
"世纪华联超市(纪宣百货商店)",31.249066,121.258059,"纪鹤路658号1182号","购物;超市"
"如海超市(NO.2255)",31.242999,121.253068,"上海市青浦区","购物;超市"
"上海如海购物中心",31.249262,121.258701,"上海市闵行区","购物;超市"
"上海如海超市",31.259237,121.239973,"华益村25临","购物;超市"
"邻家世纪华联超市",31.252214,121.244611,"华新镇凌家村332号","购物;超市"
"美又多超市",31.246694,121.263899,"上海市闵行区","购物;超市"
"快乐购",31.246055,121.25827,"上海市闵行区","购物;超市"
"颖灵百货超市",31.247875,121.258331,"纪鹤路795号","购物;超市"
"福乐佳超市",31.251772,121.244761,"华纪路94临","购物;超市"
"好又多超市",31.249139,121.25147,"上海市闵行区","购物;超市"
"福乐佳超市(纪鹤路1358弄)",31.246178,121.252354,"纪鹤路1239号附近","购物;超市"
"益华超市",31.259543,121.239964,"青浦区华益路304号416号","购物;超市"
"阿涛超市",31.253063,121.244564,"华纪路888号附近","购物;超市"
"3A百货",31.248322,121.257368,"纪鹤路809号","购物;超市"
"一红超市",31.246106,121.256998,"纪鹤路839弄66号","购物;超市"
"欢乐购连锁超市",31.250237,121.239509,"华富街125","购物;超市"
"金叶便利(NO.115)",31.249375,121.240161,"华强街158弄38","购物;便利店"
"丽丽便利店",31.246831,121.252405,"纪鹤路1239号","购物;便利店"
"粮油副食百货",31.259223,121.240395,"华益路536号附近","购物;便利店"
"金叶便利店(华纪路)",31.260304,121.244566,"华纪路和华益路的交叉口附近","购物;便利店"
"易捷便利店(华新明珠苑东南)",31.247486,121.245758,"纪鹤公路1508","购物;便利店"
"金叶便利(华徐公路)",31.239793,121.247349,"华徐公路4555号附近","购物;便利店"
"福乐家超市",31.260231,121.239169,"上海市青浦区","购物"
"老李批发部",31.260649,121.2452,"华益路31附近","购物;便利店"
"世纪华联超市(联群店)",31.283,121.256735,"曹安公路4262号附近","购物;超市"
"联华超市(联西村店)",31.273894,121.257545,"黄渡联西村联西路55号","购物;超市"
"金发超市",31.285437,121.247565,"黄渡镇春意路118弄","购物;超市"
"莲都超市(联西村)",31.279324,121.262485,"曹联路24号附近","购物;超市"
"华联超市(NO.1960店)",31.284649,121.244452,"上海市嘉定区星塔路258号125~128室","购物;超市"
"华联超市(NO.1887店)",31.272807,121.257336,"上海市嘉定区联西村241号115室附近","购物;超市"
"好易购便利超市",31.281921,121.252926,"春浓路55号107室附近","购物;超市"
"世纪超市(春意路店)",31.285016,121.251057,"春意路912号","购物;超市"
"上海园民超市黄渡店",31.281702,121.252866,"上海市嘉定区","购物;超市"
"时代华联超市",31.276898,121.261098,"曹联路35号","购物;超市"
"便民超市",31.287751,121.248568,"春雨路138号附近","购物;超市"
"99便利超市",31.283454,121.252675,"春浓路99-8","购物;便利店"
"易捷便利店(博园路)",31.275653,121.247096,"上海市嘉定区博园路3999","购物;便利店"
"美宜佳鞋业",31.273437,121.257465,"联民路与联西支路交叉口东南50米","购物;便利店"
"好邻居百货超市",31.272461,121.257977,"联西路68号附近","购物;便利店"
"敏敏烟杂店",31.274056,121.257464,"联西路45号(黄渡镇联西村联民花园东北)","购物;便利店"
"永顺便利店",31.28333,121.24429,"星塔路114号","购物;便利店"
"上海黄盈冷冻食品批发中心",31.283357,121.252713,"春浓路99号","购物;便利店"
"惠民超市(联西店)",31.273859,121.256974,"联西路56号(近曹联路)","购物"
"联华超市(翔方店)",31.313171,121.253882,"上海市嘉定区翔方公路885弄1号","购物;超市"
"联华超市(春归店)",31.291546,121.252481,"上海市嘉定区春归路258号A-14、16、17、19号","购物;超市"
"上海苏果生活超市",31.291799,121.250724,"春归路318号农民工子弟幼儿园 附近","购物;超市"
"华联超市(亮悠经营部店)",31.30313,121.257806,"金昌西路(近亮悠经营部)","购物;超市"
"世纪华联超市(宝园二路)",31.295381,121.262108,"宝园七路675号","购物;超市"
"嘉联超市(春归路)",31.29225,121.247178,"春归路485附近","购物;超市"
"嘉美便利店",31.303747,121.257632,"上海市嘉定区嘉美路2020号","购物;便利店"
"方芳日用百货商店",31.31339,121.253629,"众百南路与翔方路交叉口东南200米","购物;便利店"
"星塔超市(点心店)",31.290492,121.244811,"星塔路846","购物;便利店"
"林生杂货店",31.306473,121.242149,"安亭镇金昌西路星光村村委会1088号","购物"
"福乐佳超市",31.300554,121.263257,"南翔镇嘉美路1935号新裕幼儿园对面","购物"
"老时杂货店",31.292172,121.247696,"安亭镇星塔村春归路299号对面","购物;便利店"
"联华超市(聚瑞店)",31.335959,121.260359,"上海市嘉定区胜辛路435、439、443号","购物;超市"
"如海购物广场(五金城店)",31.321473,121.240721,"安晓路325号","购物;超市"
"华联超市(双丁路)",31.337258,121.258561,"云屏路与双丁路交叉口旁","购物;超市"
"大头超市",31.317907,121.240746,"方德路311弄63号","购物;超市"
"御源超市NO.188",31.317334,121.240401,"泰云路255弄30","购物;超市"
"金名超市",31.317113,121.239281,"方德路311弄121-122号","购物;超市"
"御源超市",31.317317,121.240288,"泰云路255弄30","购物;超市"
"惠民生鲜超市(龙湖店)",31.332844,121.259394,"嘉定区双单路1499弄101号","购物;超市"
"快客便利店(no.5523)",31.33644,121.260129,"胜辛路与双丁路交叉口南","购物;便利店"
"上海友谊劳保批发部",31.317932,121.240791,"方德路311弄61-62号","购物;便利店"
"易捷便利店(蓝湖郡东南)",31.329014,121.263236,"宝安公路3888号","购物;便利店"
"横峰漆刷装潢材料批发",31.319811,121.238974,"方德路251弄53","购物;便利店"
"上海富乐劳保批发部",31.31774,121.240547,"方德路311弄67-68号","购物;便利店"
"蔬果超市",31.319832,121.239508,"方伟路174号附近","购物;集市"
"联华超市(星海屿店)",31.356706,121.26227,"白银路560弄1号白银路德富路路口","购物;超市"
"联华超市(洪德路店)",31.355451,121.247912,"上海市嘉定区洪德路1269、1271号","购物;超市"
"鲜德宝生活超市(No.16)",31.350775,121.247659,"云屏路1515弄1号101","购物;超市"
"联华超市(白银路店)",31.350117,121.24756,"上海市嘉定区白银路1451、1453号","购物;超市"
"时代华联超市(云谷路)",31.353201,121.25367,"马陆镇云谷路1388弄龙湖蔚澜香醍北区4号楼楼下","购物;超市"
"惠家超市",31.349617,121.246304,"白银路1503号","购物;超市"
"东升超市",31.34123,121.262366,"希望路1098附近","购物;超市"
"利家佳超市",31.358152,121.24119,"上海市嘉定区G1501(上海绕城高速公路)","购物;超市"
"惠民超市(虬桥店)",31.359086,121.239694,"回城南路1286号","购物;超市"
"易捷便利店(胜辛路店)",31.357499,121.248755,"嘉定工业开发区(近胜辛路)","购物;便利店"
"现代超市",31.359029,121.243392,"嘉定工业区叶城开发区胜辛路回城南路虬桥村201号","购物"
"惠民生鲜超市盘古店",31.343937,121.251611,"上海市嘉定区崇信路61号","购物;超市"
"江苏小店",31.362871,121.252424,"回城南路159号","购物;便利店"
"天天鲜蔬菜大卖场",31.349893,121.247027,"白银路1477号","购物;超市"
"乐购超市(嘉定店)",31.379388,121.260205,"城中路2号","购物;超市"
"农工商超市(清河路店)",31.382836,121.24213,"嘉定镇清河路421号","购物;超市"
"联华超市(福海店)",31.373713,121.256172,"上海市嘉定区福海路302号","购物;超市"
"农工商超市(塔城路店)",31.381492,121.249574,"塔城路505号","购物;超市"
"世纪华联超市(叶城路店)",31.372504,121.26382,"上海市嘉定区叶城路601","购物;超市"
"华联超市(浦发店)",31.371193,121.249773,"上海市嘉定区福海路718号","购物;超市"
"华联超市NO.1291(胜辛路)",31.370868,121.239981,"胜辛路2517号B区007号","购物;超市"
"福客多平价超市",31.385222,121.248663,"人民街292-1号","购物;超市"
"联华超市(塔城店)",31.378576,121.245288,"上海市嘉定区塔城路802号","购物;超市"
"时代世纪华联(福汇店)",31.369747,121.248943,"嘉定工业区福海路777号嘉福汇2号","购物;超市"
"久一品菜市",31.374091,121.258577,"福海路218弄29号(近富蕴路)","购物;超市"
"上海教育超市(NO.18)",31.382306,121.257817,"城中路20号","购物;超市"
"云峰名品超市",31.383174,121.241964,"清河路416-5号临附近","购物;超市"
"教育超市(上大嘉定店)",31.38218,121.257952,"城中路20号上海大学内(近塔城路)","购物;超市"
"嘉乐园超市",31.383446,121.245485,"西大街98号","购物;超市"
"易购超市",31.375712,121.248103,"永盛路2771","购物;超市"
"来怡联华超市",31.370694,121.254615,"良舍路205-1号","购物;超市"
"新如海超市",31.374791,121.260508,"裕民路342附近","购物;超市"
"诚成果业(NO.007)",31.38707,121.258283,"上海市嘉定区塔城路311号","购物;超市"
"联华超市(南苑店)",31.377027,121.26244,"上海市嘉定区沪宜公路3181号","购物;超市"
"玉华超市百货",31.380603,121.250959,"南门小河口1号","购物;超市"
"日日鲜超市",31.380827,121.244922,"上海市嘉定区塔城路688弄-21号","购物;超市"
"义乌小商品超市",31.388166,121.25113,"清河路151号","购物;超市"
"全家便利店(城中路店)",31.386447,121.256399,"塔城路368弄1号","购物;便利店"
"便利超市(NO.008)",31.388456,121.249175,"嘉定区梅园路185-3号","购物;超市"
"伍缘超市",31.386472,121.247551,"清河路207号附近","购物;超市"
"易盛客超市",31.386891,121.250199,"上海市嘉定区梅园路75-16","购物;超市"
"罗森便利店(城中路)",31.381584,121.258989,"城中路16-2号","购物;便利店"
"快客便利店(裕民店)",31.371583,121.242422,"上海市裕民路1172号(胜辛社区卫生服务站东南)","购物;便利店"
"好德便利店(塔园店)",31.384929,121.251702,"嘉定区梅园路(近塔城路)","购物;便利店"
"快客便利店(no.845)",31.372525,121.254346,"福海路383-385号(南苑新村南)","购物;便利店"
"好德便利店(福海店)",31.376063,121.261512,"福海路70-72号","购物;便利店"
"快客便利店(福海店)",31.374387,121.257935,"福海路232号","购物;便利店"
"快客便利店(no.5056)",31.379305,121.246322,"塔城路688弄华名苑23","购物;便利店"
"好德便利店(沙霞店)",31.385343,121.260955,"沙霞路75-3号","购物;便利店"
"快客便利店(新城店)",31.37379,121.244986,"裕民路1010号(清水颐园东)","购物;便利店"
"易购超市",31.384531,121.244037,"清河路项泾西街路口附近","购物;便利店"
"好德便利店",31.378529,121.258583,"沪宜公路3285-3","购物;便利店"
"快客便利店(no.6782)",31.377923,121.242939,"沪宜公路3883号","购物;便利店"
"快客便利店(no.1357)",31.385719,121.261501,"沙霞路61号(近孔庙)","购物;便利店"
"好德便利店",31.385917,121.250622,"梅园路32","购物;便利店"
"好德便利店",31.381964,121.25925,"城中路33-1","购物;便利店"
"敏敏杂货店",31.370647,121.240181,"胜辛路2517号C区001号","购物;超市"
"国祥杂货店",31.378325,121.245147,"塔城路822号","购物;超市"
"易捷便利店(嘉定店)",31.375365,121.262981,"沪宜公路3145号","购物;便利店"
"嘉定区叶城新城商店",31.369481,121.263647,"回城南路1128号A区606号","购物;便利店"
"农资泰峰百货商场",31.379561,121.246552,"塔城路600-15号","购物"
"秋冬水果卖场",31.374073,121.257164,"福海路256-1","购物;超市"
"家和生鲜超市",31.378818,121.245424,"塔城路746号","购物;超市"
"好德便利店(嘉清店)",31.388031,121.249869,"清河路160-1号","购物;便利店"
"易捷便利店(塔城路)",31.377441,121.24529,"塔城路889号","购物;便利店"
"顶顶鲜水果大卖场(福海路店)",31.373791,121.257344,"福海路259号","购物;超市"
"快客便利店(no.5565)",31.372777,121.249519,"永盛路2551弄16号","购物;便利店"
"车站便民商店",31.378569,121.258592,"沪宜公路与群裕路交叉口东南50米","购物;便利店"
"友情便利",31.379106,121.259829,"嘉定沪宜公路3260号新石器烤肉旁","购物;便利店"
"惠民超市(裕民路店)",31.376884,121.244833,"裕民路996号","购物;便利店"
"恩惠便利店",31.382757,121.2414,"菊园新区管委会清河路446号","购物;便利店"
"琴兴便利店",31.38611,121.25016,"人民街216号","购物;便利店"
"启良易购便利店",31.384504,121.247431,"西大街4","购物;便利店"
"爱彼西便利店",31.381923,121.241267,"上海市嘉定区清河路453弄7号甲底层东-1","购物;便利店"
"香港天德(东方商厦嘉定店)",31.386231,121.255046,"城中路66号F1层","购物;便利店"
"城霞便利",31.382421,121.258348,"城中路吉祥馄饨旁","购物;便利店"
"方便角",31.378826,121.258325,"群裕路119号","购物;便利店"
"勤民综合商店",31.384538,121.251989,"嘉定区梅园路9号","购物;便利店"
"陈氏烟杂店(胜辛店)",31.371449,121.239596,"胜辛路2517号附近","购物;便利店"
"利华日用杂品综合商店",31.383302,121.245153,"嘉定镇西大街108号","购物;便利店"
"勤奋杂货商店",31.384839,121.260028,"沙霞路9-2号","购物;便利店"
"良辰超市",31.380652,121.239614,"清河路与红石路交叉口北30米","购物"
"上海嘉定房乐综合经营部",31.386562,121.263131,"金沙路18号","购物;便利店"
"裕民综合经营部",31.373819,121.260733,"上海市嘉定区裕民路293号","购物;便利店"
"华诚果业(梅园店)",31.38646,121.250555,"嘉定人民街180号(梅园路路口)","购物;超市"
"申晨杂货店",31.383511,121.242284,"上海市嘉定区清水路11号","购物;便利店"
"一都赞宝岛商行",31.37717,121.244548,"沪宜公路3869-3871","购物;便利店"
"老农民鲜食",31.385295,121.263141,"上海市嘉定区博乐路70-3号","购物;超市"
"兴旺商行",31.386383,121.262721,"金沙路8号-1号","购物;便利店"
"西塔杂货店",31.379512,121.241619,"嘉丰路68-7","购物;便利店"
"妙佳经营部",31.384769,121.259778,"沙霞路93-2号","购物;商铺"
"诚皓食品商行",31.385833,121.24504,"环城路2521号","购物;便利店"
"金兴商行",31.38306,121.258437,"城中路37-7号","购物;便利店"
"天一杂货店(嘉定人民街店)",31.386569,121.250853,"上海市嘉定区人民街172号","购物;便利店"
"娟娟杂货店",31.38039,121.261673,"南街142号166号","购物;便利店"
"军记杂货店",31.384894,121.241098,"上海市嘉定区清水路67号","购物;便利店"
"根林杂货店",31.373197,121.25577,"福海路319号","购物;便利店"
"杰田杂货店",31.372208,121.250034,"永盛路2501弄20","购物;便利店"
"金金杂货店",31.36896,121.243875,"福海路1030","购物;便利店"
"伟伟杂货店(塔城路800-850弄东北)",31.378804,121.244829,"塔城路800弄3-105","购物;便利店"
"亮亮杂货店(汇城公寓东南)",31.379191,121.244192,"塔城路800弄3-119","购物;便利店"
"惠珍杂货店",31.384643,121.241285,"上海市嘉定区清水路65号","购物;便利店"
"康乐杂货店",31.382511,121.241809,"清河路443-5","购物;便利店"
"花园弄杂货店",31.387272,121.250883,"清河路","购物;便利店"
"吉祥杂货店(张马路店)",31.387436,121.255567,"张马路43号附近","购物;便利店"
"丰云杂货店",31.382454,121.241749,"清河路443-6","购物;便利店"
"迎迎杂货店",31.383785,121.243701,"清河路389号","购物;便利店"
"上海侨港综合商行",31.386901,121.249766,"上海市嘉定区","购物"
"宏发水果大卖场嘉定分店",31.384533,121.247492,"西大街2号","购物;超市"
"妙佳经营部",31.38339,121.245333,"西大街102号","购物"
"兴胜杂货店",31.386183,121.259237,"嘉定镇街道南大街188号","购物"
"伟民超市",31.386533,121.253962,"嘉定城中路72弄3号","购物"
"赖上家生鲜超市",31.382578,121.241795,"上海市嘉定镇清河路443号","购物;超市"
"来来来水果杂货超市",31.386276,121.251284,"中下塘街130号","购物;超市"
"大个子水果超市(迎园饭店南)",31.387412,121.250799,"嘉定镇清河路花园弄79号104号(迎园饭店南)","购物;超市"
"第五季百货(塔城路店)",31.378864,121.245719,"塔城路734","购物"
"宏发水果大卖场(塔城路店)",31.37801,121.24479,"塔城路852号","购物"
"江丰百货",31.38611,121.25016,"人民街212号","购物"
"欧尚超市(嘉定店)",31.390145,121.260233,"嘉定区博乐路99号博乐广场对面(近塔城路)","购物;超市"
"联华超市(嘉定店)",31.390035,121.252217,"上海市嘉定区城中路138号ONLY(罗宾森广场上海罗宾森店)1层","购物;超市"
"华联超市(NO.2613店)",31.392846,121.24654,"上海市嘉定区嘉定镇城北路1号","购物;超市"
"世纪联华(罗宾森购物广场城中路)",31.390834,121.25192,"嘉定镇城中路138号罗宾森购物广场B1层","购物;超市"
"农工商超市(棋盘路店)",31.402477,121.258159,"棋盘路1189","购物;超市"
"联华超市(菊园店)",31.402369,121.260755,"上海市嘉定区棋盘路1068号","购物;超市"
"好又多超市",31.413097,121.243364,"嘉唐公路596-1号附近","购物;超市"
"易购超市",31.389971,121.24926,"上海市嘉定区梅园路245号","购物;超市"
"华联超市NO.2925(菊园店)",31.399521,121.260214,"菊园新区嘉行公路1号","购物;超市"
"如海超市(NO.1188)",31.412464,121.243535,"嘉唐公路601号","购物;超市"
"家得利超市",31.393089,121.252501,"嘉定区温宿路62弄4号(近温宿路菜场)","购物;超市"
"联发(no.0168)",31.392865,121.25217,"温宿路74-9","购物;超市"
"全佳超市",31.411248,121.252032,"柳湖路769号","购物;超市"
"星期天超市",31.390244,121.252237,"上海市嘉定区城中路138号ONLY(罗宾森广场上海罗宾森店)1层","购物;超市"
"小商品超市",31.389314,121.255205,"上海市嘉定区城中街116号","购物;超市"
"联华超市(梅园店)",31.392052,121.250552,"上海市嘉定区梅园路302号","购物;超市"
"世纪华联温宿路便利店",31.393577,121.253504,"上海市嘉定区温宿路42弄6号104","购物;超市"
"联发超市(no.0158)",31.389411,121.255592,"城中街100","购物;超市"
"广场超市",31.388642,121.245147,"环城路2390号","购物;超市"
"罗森便利店(塔城路店)",31.389362,121.262929,"塔城路283号-12-13","购物;便利店"
"华联超市(勇健店)",31.405024,121.259942,"嘉定区平城路602号","购物;超市"
"联嘉超市",31.393086,121.25026,"城中路208-2","购物;超市"
"如海",31.410574,121.252324,"上海市嘉定区","购物;超市"
"阳光百货超市",31.409001,121.244882,"祁迁路788号","购物;超市"
"厦商城-南楼",31.390857,121.25819,"博乐路180号","购物;超市"
"便利超市",31.390688,121.258401,"博乐路森达旁","购物;超市"
"联发no.0001",31.393526,121.249765,"城中路216弄1号","购物;超市"
"良友(嘉定李园店)",31.393622,121.257907,"李园二村2号","购物"
"好德便利店(嘉北店)",31.393602,121.255596,"嘉定北大街139弄7号","购物;便利店"
"好德便利店(棋盘店)",31.402039,121.259353,"棋盘路1139号","购物;便利店"
"罗森便利店(嘉定NO.2平城路店)",31.397068,121.243432,"轨道交通11号线嘉定北站一层部分","购物;便利店"
"快客便利店(no.1351)",31.393707,121.261562,"金沙路385号(东大小区西南)","购物;便利店"
"好德便利店(清河店)",31.388474,121.251513,"清河路123-6","购物;便利店"
"好德便利店(城街店)",31.389643,121.255776,"城中街92-1","购物;便利店"
"好德便利店",31.39078,121.257036,"清河路快鱼旁(近步行街)","购物;便利店"
"屈臣氏(清河路店)",31.391696,121.257448,"上海市嘉定区清河路2-7","购物;商铺"
"良友超市",31.393456,121.253227,"温宿路50之5-6号(嘉定区嘉定镇街道市容环境协管队西)","购物;便利店"
"惠民超市(环城路店)",31.399814,121.258773,"菊园环城路578号","购物"
"韦娟杂货店",31.389299,121.256423,"中下塘街41-1","购物;超市"
"全家便利店(金沙路店)",31.391934,121.263339,"嘉定区金沙路280号--10","购物;便利店"
"上海顺隆(嘉定店)",31.394301,121.254827,"温宿路30弄1号","购物;便利店"
"好德便利店",31.393861,121.257947,"博乐路233-3号","购物;便利店"
"派迪烟杂店",31.390575,121.249234,"嘉定区梅园路258-5号","购物;便利店"
"快客便利店(no.6622)",31.389183,121.262619,"嘉定区塔城路295号","购物;便利店"
"惠民超市(嘉唐店)",31.409157,121.245103,"嘉唐公路511-1","购物"
"快客便利店(no.6849)",31.405742,121.257477,"棋盘路1377号颐景园东门向南10米","购物;便利店"
"易捷便利店(嘉定区公路管理署西南)",31.396519,121.249579,"嘉定镇(嘉定区公路管理署西南)","购物;便利店"
"云龙综合商店",31.391656,121.256262,"清河路10号","购物;便利店"
"塔前杂货",31.388486,121.258191,"嘉定南大街289号附近","购物;便利店"
"思味思我",31.397068,121.243432,"平城路1188号地铁11号线嘉定北站商场内","美食;中餐厅"
"好德便利店(东大店)",31.39431,121.262914,"嘉定东大街新希望教育旁","购物;便利店"
"校园便利",31.39205,121.263296,"嘉定区金沙路沙县小吃对面","购物;便利店"
"宝中宝综合商店",31.396757,121.259363,"金沙路559号","购物;便利店"
"桃园平价(果业)",31.393505,121.252803,"察院弄与温宿路交叉口旁","购物;便利店"
"雨洁水果商行",31.402358,121.259313,"菊园新区棋盘路1110弄7号","购物;超市"
"温宿杂货店",31.394067,121.254356,"上海市嘉定区温宿路36号-4","购物;便利店"
"嘉福商行",31.398449,121.252739,"嘉定北大街299号","购物;便利店"
"德惠多超市",31.41014,121.245214,"嘉唐公路138号附近","购物"
"省客隆鞋服超市",31.412716,121.242637,"嘉唐公路与曹新公路交叉口西南50米","购物"
"双城商行",31.389455,121.249203,"嘉定区梅园路239-3号","购物;便利店"
"金熠杂货商行",31.404079,121.260664,"嘉行公路225弄11","购物;便利店"
"上海冬欣莘贸易商行",31.407357,121.246791,"嘉唐公路220号","购物;便利店"
"卿红贸易商行",31.407215,121.256194,"胜竹路2172号","购物;便利店"
"博乐杂货店",31.39486,121.257187,"李园二村21号101室","购物;便利店"
"宇昂杂货店",31.390466,121.252856,"城中路163之2-3","购物;便利店"
"嘉定镇梦得丽杂货店",31.394421,121.254919,"上海市嘉定区","购物;便利店"
"乐香香炒货(嘉定店)",31.389623,121.255909,"城中街90号","购物;超市"
"鲜果园联嘉超市",31.39312,121.250275,"城中路208-2","购物;超市"
"天天鲜博乐旗舰店",31.393902,121.257926,"博乐路233-4","购物;超市"
"佩塔杂货部",31.394008,121.261301,"金沙路397","购物"
"梦得利水果大卖场",31.39436,121.254949,"北大街与温宿路交叉口旁","购物;超市"
"洁洁杂货店",31.400694,121.240412,"城北路与胜竹路交叉口西北200米","购物"
"大个子水果超市",31.400851,121.261002,"嘉行公路66号","购物;超市"
"第五季百货",31.389417,121.255073,"城中街108-5号","购物"
"上海硕源果业(平城店)",31.405011,121.259889,"平城路604号","购物;超市"
"aussin(嘉定商城)",31.390262,121.25456,"清河路48号F5层","购物"
"商友经营部",31.39052,121.258079,"东大街426","购物"
"好又多(no.1868)",31.414875,121.241254,"上海市嘉定区","购物;超市"
"战斗超市",31.427639,121.241126,"娄塘镇赵厅村战斗9号","购物;超市"
"好又多超市(战斗路店)",31.429349,121.24389,"娄塘镇","购物;超市"
"鲜德宝生活超市(曹新店)",31.424892,121.261834,"曹新路3618临","购物;超市"
"上海教育超市(NO.192)",31.413957,121.256853,"嘉行公路851号","购物;超市"
"嘉联超市",31.414801,121.246666,"娄唐镇嘉唐公路600弄87号","购物;超市"
"众伟超市",31.426949,121.259331,"上海市嘉定区","购物;超市"
"阿龙超市",31.430929,121.25909,"嘉行公路334号","购物;超市"
"望胜超市",31.424535,121.259691,"曹新路3740临","购物;超市"
"依尼批发超市",31.435586,121.258506,"嘉行公路1666号","购物;超市"
"上海贤超贸易商行",31.438275,121.257447,"嘉行公路1699号","购物;便利店"
"易捷便利店(世纪绿苑西)",31.419967,121.260881,"嘉行公路1155","购物;便利店"
"哈哈旺便利店",31.426857,121.258527,"嘉行公路西200米","购物;便利店"
"小雷便利店",31.418967,121.251762,"曹新公路265号","购物;便利店"
"佳佳便利店",31.428494,121.243036,"战斗路493号107室","购物;便利店"
"光明便利",31.413899,121.256703,"嘉行公路851号","购物;便利店"
"伟峰批发部",31.417927,121.238952,"嘉唐公路680号","购物;便利店"
"福乐佳超市",31.430937,121.259518,"嘉行公路1480号","购物"
"巧致杂货店",31.430409,121.259189,"嘉行公路1308号附近","购物;便利店"
"甜心水果超市",31.428535,121.243094,"战斗路493附近","购物;超市"
"联海超市",31.460926,121.256264,"高石公路2727号附近","购物;超市"
"福乐佳超市",31.459599,121.251399,"嘉行公路2817号2819号","购物;超市"
"新世纪超市(嘉行公路)",31.442361,121.257097,"嘉行公路1852号2382号","购物;超市"
"华夏超市",31.449919,121.25444,"华亭镇塔桥村378号122室","购物;超市"
"福乐佳超市塔桥店",31.449378,121.255392,"嘉行公路2658号","购物;超市"
"好惠多超市",31.452905,121.255947,"嘉行公路2680号附近","购物;超市"
"昆仑好客",31.443737,121.257442,"嘉行公路2498号","购物;便利店"
"康达糖酒食品百货批发部",31.456043,121.25267,"嘉行公路2817号2819号","购物;便利店"
"嘉定区华亭镇唐行志强杂货店",31.449353,121.254891,"嘉行公路2653号附近","购物;便利店"
"惠民石村店",31.461,121.250677,"嘉行公路2933-3","购物"
"西川杂货店",31.459393,121.251328,"嘉行公路2817号2819号","购物;便利店"
"由惠杂货店",31.4498,121.253988,"塔桥路附近","购物;便利店"
"其明杂货店",31.438904,121.257258,"嘉行公路1741号1957号","购物;便利店"
"凤英杂货店",31.44171,121.256727,"嘉行公路2198号附近","购物"
"世纪华联超市(荣乐东路)",31.024069,121.274056,"松江工业区荣乐东路1519号","购物;超市"
"联华超市(荣乐店)",31.022768,121.264205,"松江区荣乐东路1841-1843号","购物;超市"
"华联超市(荣东店)",31.022797,121.265885,"荣乐东路与洞泾路交叉口旁","购物;超市"
"华联超市",31.02794,121.268099,"上海松江区松卫北路665号企福天地1层","购物;超市"
"华联超市",31.037835,121.264865,"九亭镇沪松路1119号","购物;超市"
"美惠全连锁超市NO.272",31.015582,121.270451,"中山东路与松卫北路交叉口旁","购物;超市"
"美惠全连锁超市no.205",31.034753,121.267344,"松卫北路295号","购物;超市"
"好又多超市",31.023929,121.274826,"荣乐东路567号","购物;超市"
"亲情华联超市",31.013799,121.267574,"上海市松江区中山街道东外街36弄32-34号","购物;超市"
"红彬百货",31.022788,121.265125,"荣乐东路1807","购物;超市"
"世纪华联超市(no.1688店)",31.015183,121.270011,"中山东路福建沙县小吃对面","购物;超市"
"时代联华超市(松卫店)",31.034495,121.266713,"松卫北路280凯富家园广场1层108","购物;超市"
"好德",31.03579,121.276145,"江田东路上海宏邦旁","购物;便利店"
"宝胜快客便利店(NO.886)",31.028046,121.274332,"宝胜路18号宝胜国际财富中心10号楼1层","购物;便利店"
"喜士多便利店(荣乐东路)",31.02348,121.269883,"荣乐东路与宝益路交叉口旁","购物;便利店"
"快客便利店(no.5249)",31.024147,121.268043,"松卫北路888","购物;便利店"
"白领之家超市",31.027227,121.268381,"松卫北路755号","购物"
"旺仔便利店",31.027024,121.269464,"宝荣路与宝益路交叉口南200米","购物;便利店"
"易捷便利店(荣乐东路)",31.024527,121.274616,"松江工业区荣乐东路1505号","购物;便利店"
"福缘便利店",31.024316,121.266024,"上海市松江区","购物;便利店"
"新快客超市",31.024126,121.268153,"荣乐东路与松卫北路交叉口北","购物;便利店"
"昆仑好客",31.017586,121.270958,"松卫北路1199号","购物;便利店"
"香逸便利",31.022788,121.265026,"荣乐东路华联超市旁","购物;便利店"
"玲迪便利店",31.02716,121.26818,"松卫北路755号","购物;便利店"
"松捷食品便利店",31.024176,121.274537,"荣乐东路1515弄5临","购物;便利店"
"明南超市",31.050683,121.276802,"明南路279号","购物;超市"
"易购超市",31.050903,121.28602,"新格路62","购物;超市"
"好又多购物中心",31.050012,121.285821,"上海市松江区新格路26号","购物;超市"
"家家福超市(梅家浜路)",31.056127,121.264021,"梅家浜路","购物;超市"
"全家便利店(文翔东路店)",31.044186,121.275003,"文翔东路58号","购物;便利店"
"平价超市",31.057781,121.287075,"新格路487号附近","购物;超市"
"世纪联佳超市(曹农路店)",31.048846,121.287365,"新桥镇曹农路637号","购物;超市"
"吉允百货经营部",31.050012,121.285821,"新格路26号","购物;超市"
"联合一百(明南超市店)",31.050622,121.277146,"中山街道明南路279号(近明南超市)","购物;便利店"
"万家超市",31.043597,121.265815,"沪松公路典亿广告北","购物;便利店"
"民丰商店",31.055632,121.265614,"沪松公路5649临","购物;便利店"
"大家便利店",31.062757,121.273918,"中凯路","购物;便利店"
"易捷",31.044921,121.265576,"沪松公路6251临","购物;便利店"
"惠民便利店",31.042954,121.265746,"沪松公路6389号附近","购物;便利店"
"科乐超市",31.058403,121.287108,"新格路附近","购物;便利店"
"好量贩",31.051189,121.286087,"新格路62号","购物"
"再庆超市",31.060314,121.287235,"新格路589","购物"
"联华超市(沪松公路店)",31.087112,121.276605,"上海市松江区长兴路495号","购物;超市"
"世纪华联超市(洞泾店)",31.087537,121.268075,"上海市松江区洞薛路142号靠南1~7号","购物;超市"
"好又多超市",31.068715,121.264157,"上海市松江区茸惠路1199弄7、8号","购物;超市"
"联华超市(洞宁店)",31.08158,121.286164,"洞宁路639-641号","购物;超市"
"上海如海生鲜生活广场",31.082681,121.286155,"洞泾镇洞宁路669号","购物;超市"
"百颗星超市",31.076553,121.274377,"松江区茂盛路289号","购物;超市"
"乐选超市",31.087507,121.265785,"洞凯路218号","购物;超市"
"世纪华联超市(欣益店)",31.086901,121.273718,"长兴路与同盛路交叉口旁","购物;超市"
"福乐佳超市(松江区洞泾镇卫生服务中心西北)",31.08721,121.268207,"洞薛路142号(松江区洞泾镇卫生服务中心西北)","购物;超市"
"得云鑫",31.086402,121.273757,"同盛路97","购物;超市"
"上海联农洞泾光星村超市",31.08245,121.272017,"光星村七队738号","购物;超市"
"好的",31.087192,121.27739,"上海市松江区","购物;超市"
"东婷超市",31.087706,121.281149,"长兴路274","购物;超市"
"盼升杂货店",31.08783,121.273659,"同盛路177","购物;超市"
"快客便利店(NO.6535)",31.086782,121.274007,"洞泾镇同盛路118号","购物;便利店"
"小绍兴百货",31.070104,121.268019,"沪松公路3968号附近","购物;便利店"
"老大百货商店",31.087723,121.27395,"同盛路174号","购物;便利店"
"家涛便利店",31.082395,121.285278,"洞宁路655弄69号","购物;便利店"
"民丰商店",31.069774,121.264748,"茸惠路1128号","购物;便利店"
"永盛商店",31.087644,121.280203,"洞泾・长兴路附近","购物;便利店"
"美美商店",31.087536,121.278657,"长兴路388","购物;便利店"
"财发杂货店",31.087291,121.271091,"洞薛路10幢附近","购物;便利店"
"春梅杂货店",31.087017,121.270218,"莲雄路56","购物;便利店"
"兰召杂货店",31.069785,121.267957,"沪松公路3968号附近","购物;便利店"
"爱华杂货店",31.087503,121.268995,"洞薛路104号","购物"
"小周水果超市",31.082355,121.285352,"洞泾镇润景苑小区","购物;超市"
"烘烘食品商店",31.086985,121.271122,"沪松公路与洞泾・长兴路交叉口旁","购物"
"乐家购物中心(洞莘路店)",31.089519,121.277063,"洞泾镇洞莘路236号","购物;超市"
"农工商超市(no.0335)",31.092653,121.276338,"洞泾镇同乐路399号4幢","购物;超市"
"好又多超市",31.10253,121.277824,"上海市松江区沪松公路3281弄944号临附近","购物;超市"
"世纪华联超市NO.2450",31.089457,121.284041,"上海市松江区","购物;超市"
"世纪华联超市",31.108447,121.287814,"泗泾镇张泾路1343号","购物;超市"
"开心小超市",31.089188,121.277461,"洞泾镇洞莘路217号","购物;超市"
"世纪华联超市(永翔商务广场西北)",31.105616,121.27738,"上海市松江区沪松公路3181弄472号临","购物;超市"
"好又多超市",31.102441,121.279717,"九洲世贸综合市场3-120","购物;超市"
"联华超市(绿波景园南)",31.113154,121.278076,"上海市松江区沪松公路2972弄18、20号","购物;超市"
"金港购物建女超市",31.112994,121.26982,"泗泾镇横港路643号","购物;超市"
"好多多超市",31.108031,121.280449,"沪松公路5188号3区","购物;超市"
"佳景佳便利超市",31.099383,121.271847,"上海市松江区","购物;超市"
"福润源超市(古楼店)",31.111385,121.273034,"古楼公路644号","购物;超市"
"联华超市(古楼公路店)",31.111604,121.271749,"松江区古楼公路362号","购物;超市"
"世纪华联超市(勤亮店)",31.100336,121.275338,"砖桥贸易城1区北大道3幢1号","购物;超市"
"家雄百货超市",31.111532,121.265106,"古楼公路台铃电动车旁","购物;超市"
"如海超市(张泾店)",31.108226,121.287286,"张泾路1339-7号","购物;超市"
"千家惠百货",31.093525,121.276425,"振业路与洞泾・同乐路交叉口旁","购物;超市"
"如海超市(砖桥店)",31.104416,121.277446,"沪松公路3281弄864号","购物;超市"
"惠得利超市(古楼店)",31.111552,121.268771,"古楼公路与横港公路交叉口西","购物;超市"
"东门超市",31.101011,121.277631,"洞泾・长浜路附近","购物;超市"
"好又多购物",31.111134,121.279014,"江川南二路永翔北商务楼","购物;超市"
"华联超市NO.2319",31.112834,121.269471,"横港公路642号(近古楼路)","购物;超市"
"华联超市(俊洪店)",31.108261,121.286545,"上海市松江区张泾路1339弄2号3室","购物;超市"
"百易得超市",31.105443,121.278144,"沪松公路3181弄628号","购物;超市"
"绿源蔬菜配送",31.101652,121.274985,"洞泾・长浜路附近","购物;超市"
"易捷便利店(张泾路)",31.099036,121.286889,"莘砖公路3638号","购物;便利店"
"浦兴百货批发部",31.098891,121.274955,"砖桥贸易城一区46幢11号","购物;便利店"
"易捷便利店(沈砖公路)",31.099066,121.272441,"沪松公路3391","购物;便利店"
"东顺咸肉冷冻食品批发",31.101311,121.27565,"砖桥贸易城一区农副产品甲2号摊位","购物;便利店"
"上海知源劳防用品批发部",31.098754,121.27366,"莘砖公路附近","购物;便利店"
"福旺便利店",31.110804,121.278417,"E幢2号","购物;便利店"
"全天IT便利店",31.08928,121.27809,"洞莘路与洞泾・同乐路交叉口东","购物;便利店"
"友根劳保雨具批发部",31.098664,121.275713,"松江砖桥贸易城一区1幢40-41号","购物;便利店"
"洞泾便利店",31.089944,121.270426,"上海市松江区","购物;便利店"
"佳亦便利店",31.11121,121.269291,"古楼路224号附近","购物;便利店"
"利得便利店",31.099972,121.271914,"沪松公路3388号","购物;便利店"
"计新食品批发部",31.099841,121.275648,"36幢9号","购物;便利店"
"兴宏百货劳防批发部",31.098816,121.274739,"砖桥贸易城一区31幢1号","购物;便利店"
"同乐便利店",31.104725,121.277379,"上海市松江区","购物;便利店"
"金城百货批发部",31.101067,121.277638,"同乐路北路9-11号","购物;便利店"
"德盛百货批发部",31.103218,121.277487,"同乐路337号","购物;便利店"
"博军百货批发部",31.100906,121.275391,"砖桥贸易城1区58栋01号","购物;便利店"
"克银批发部",31.099468,121.276831,"48幢13号","购物;便利店"
"好如食品批发部",31.099468,121.276831,"沪松公路5188号一区41幢2号","购物;便利店"
"上海悦来劳防用品批发部",31.098919,121.275226,"砖桥贸易城一区31幢7号","购物;便利店"
"博利粮店",31.089766,121.276391,"洞泾・同乐路附近","购物"
"宏达食品经营部(砖桥村中心卫生室西北)",31.100102,121.273148,"沪松公路3459号3523号(双达旅馆二部东)","购物;便利店"
"上海大荣副食品商行",31.099847,121.275743,"砖桥贸易城一区36幢1号","购物;便利店"
"上海红林食品商行",31.099087,121.276419,"莘砖公路3989号附近","购物;便利店"
"宝芝林食品商行",31.100713,121.275835,"砖桥贸易城一区58幢4号","购物;便利店"
"味味杂货店",31.089152,121.27623,"洞泾镇洞莘路265号","购物;便利店"
"洞泾镇凯军百货商行",31.108019,121.280715,"洞泾镇沪松公路3131弄112号","购物"
"三昌食品配料中心",31.101156,121.276205,"砖桥贸易城一区58幢12号","购物"
"辉弦食品商行",31.107492,121.277965,"沪松公路3131弄71号","购物"
"日用百货",31.089595,121.276485,"上海市松江区","购物"
"红林酒类批发",31.098973,121.276255,"洞泾・同乐路附近","购物"
"大润发超市",31.1235,121.26615,"上海市松江区横港路三湘商业广场1层","购物;超市"
"吉买盛超市",31.113634,121.282103,"上海市松江区沪松公路2871-69号汇泾商业广场1层","购物;超市"
"世纪华联超市",31.121751,121.282671,"鼓浪路412号","购物;超市"
"如海超市(鼓浪路)",31.121129,121.28024,"鼓浪路542-546","购物;超市"
"联华超市(润和苑北)",31.119591,121.274604,"鼓浪路777、781","购物;超市"
"华联超市(泗泾店)",31.119327,121.270391,"上海市松江区泗凤公路142、144号","购物;超市"
"莲花超市(泗泾店)",31.116248,121.285741,"沪松公路与江达南路交叉口旁","购物;超市"
"快购超市",31.12176,121.281958,"鼓浪路靠四凤路","购物;超市"
"超市水果蔬菜部",31.119385,121.276251,"上海市松江区沪松公路2871-69号汇泾商业广场4层","购物;超市"
"如佳生活超市",31.121992,121.284763,"鼓浪路268号110～115室","购物;超市"
"莲花超市",31.133251,121.274807,"赵非公路698弄1～144号附近","购物;超市"
"全家便利店(横港路店)",31.123396,121.267022,"松江区横港路18弄85号","购物;便利店"
"联华超市(九干公路店)",31.13735,121.27973,"松江区九干公路67号","购物;超市"
"华联超市(方泗店)",31.135393,121.279941,"上海市松江区方泗路169~173号","购物;超市"
"嘉联超市(打铁桥路店)",31.13552,121.285969,"九干公路聚源宾馆旁","购物;超市"
"上海意购超市",31.135734,121.285652,"打铁桥路131号附近","购物;超市"
"序春超市",31.114587,121.282814,"沪松公路与泗泾江川路交叉口旁(沪松公路俏厨娘鱼头王旁)","购物;超市"
"联农超市(方泗公路店)",31.136925,121.280139,"方泗公路227号","购物;超市"
"可德超市",31.122452,121.282532,"泗泾文化路278号(大名公寓北)","购物;超市"
"美惠全no.136",31.115829,121.285829,"沪松公路与张泾路交叉口旁","购物;超市"
"联福超市",31.114522,121.287124,"张泾公路(靖多苑北)","购物;超市"
"b蓉兴盛便利超市",31.120476,121.274424,"上海市松江区鼓浪路790弄-57号","购物;超市"
"万佳超市",31.122917,121.288637,"上海市松江区","购物;超市"
"连心超市",31.136983,121.266992,"赵巷镇三祥路","购物;超市"
"万家乐便利",31.11407,121.28028,"沪松公路2929号","购物;超市"
"好德便利店(江川店)",31.114842,121.281346,"上海市松江区沪松公路2871-69号汇泾商业广场1层","购物;便利店"
"佳友超市",31.122292,121.268501,"横港路55号","购物;超市"
"易捷便利店(泗泾・江川路)",31.114548,121.28312,"泗泾・江川路与沪松公路交叉口东","购物;便利店"
"快客便利店(no.6292)",31.118102,121.280459,"江川北路125","购物;便利店"
"快客便利店(no.6860)",31.118937,121.270451,"泗凤公路虾满堂旁","购物;便利店"
"吉利超市",31.119357,121.274075,"上海市松江区鼓浪路805号","购物"
"赣南脐橙",31.12039,121.276659,"上海市松江区鼓浪西路30幢前798183号","购物;便利店"
"快客便利店(鼓浪路店)",31.122452,121.288357,"上海市松江区","购物;便利店"
"好多家汇元便利店",31.120228,121.27685,"上海市松江区","购物;便利店"
"序春便利店(泗泾店)",31.114972,121.282702,"沪松公路2812号","购物;便利店"
"杰烟百货商店",31.121908,121.284434,"鼓浪路338号","购物;便利店"
"金港便利店",31.117634,121.269032,"横港公路品香阁旁","购物;便利店"
"联合一百泗宇便利店沪NO.1178",31.11841,121.286526,"开江东路华东精品旁","购物;便利店"
"芒果",31.118296,121.286424,"上海市松江区","购物;便利店"
"便利店",31.116912,121.28058,"上海市松江区","购物;便利店"
"好多家便利店",31.120272,121.276809,"鼓浪路625号","购物;便利店"
"韩国食品超市",31.123261,121.267642,"横港公路蓓蓓莉烘焙坊西侧","购物"
"利民便利店",31.117573,121.2806,"上海市松江区","购物;便利店"
"萱灏便利店",31.11668,121.280097,"泗泾・江川路与开江中路交叉口旁","购物;便利店"
"序叶便利店",31.119203,121.269272,"泗泾镇横港路107号裕豪海鲜大酒店","购物;便利店"
"苏捷便利",31.122451,121.286535,"鼓浪路220号5幢101","购物;便利店"
"上海市松江区韩居屋便利店",31.123139,121.26651,"泗泾镇横港路18弄77号","购物;便利店"
"阿亮便利店",31.122384,121.286102,"上海市松江区","购物;便利店"
"便利店",31.122254,121.267301,"上海市松江区","购物;便利店"
"九干菜店",31.137294,121.27981,"九干路1168附近","购物;超市"
"快家",31.122291,121.288022,"鼓浪路107号","购物"
"金鑫百货",31.118206,121.285502,"开江东路204","购物"
"伊全鞋服超市",31.117269,121.280967,"泗泾・江川路与开江中路交叉口北","购物"
"上海康辉机械加工部",31.115021,121.287157,"张泾路605号附近","购物;便利店"
"兴旺杂货店(松0352)",31.117198,121.27651,"西安路55","购物;便利店"
"兴丰杂货店",31.120036,121.277718,"鼓浪路641","购物;便利店"
"昌盛杂货店",31.118772,121.279781,"江川北路173弄18","购物"
"联中果业no.10",31.120491,121.277766,"赵非公路与鼓浪路交叉口旁","购物;超市"
"完美其玲日用品商行",31.116601,121.279532,"开江西路506号","购物"
"千家惠百货",31.12045,121.2802,"江川北路228号-1","购物"
"联中水果大卖场(鼓浪路)",31.121408,121.282282,"鼓浪路438号","购物"
"义乌百货",31.11796,121.285433,"上海市松江区","购物"
"卷烟销售网络店",31.134556,121.280483,"方泗公路108号","购物"
"阳光联华超市(前云路中心店)",31.145203,121.280955,"徐泾镇前云路金云村42弄45号","购物;超市"
"金云超市",31.145662,121.281387,"徐泾镇前云路金云小区42弄40号","购物"
"雅丽便利店",31.146238,121.281146,"徐泾镇前云路42弄19号","购物;便利店"
"川西大陆超市",31.146937,121.280562,"徐泾镇前云路金云新村北大门42路2号","购物"
"金叶便利店",31.150583,121.277542,"徐泾镇金云村前云路117号","购物;便利店"
"生活易购",31.147864,121.279128,"徐泾镇前云路金云村320号","购物;便利店"
"方泗便利店",31.138534,121.280479,"方泗路156号","购物;便利店"
"闽兴超市",31.144978,121.281345,"徐泾镇前云路42弄61号","购物"
"爱家超市",31.151861,121.27814,"金云村村委会对面桥北6号","购物"
"农工商超市(徐泾店)",31.175677,121.27238,"青浦区徐泾镇盈港东路2168号(近宋家宅路)","购物;超市"
"御荣吉买盛生活超市",31.176749,121.28213,"上海市青浦区京华路208号","购物;超市"
"鹤森超市",31.175195,121.277368,"上海市青浦区徐泾镇明珠路258号","购物;超市"
"华联超市(绿中海店)",31.181442,121.273161,"徐泾镇明珠路555弄13号-101号","购物;超市"
"如海超市(盈港东路店)",31.17384,121.267224,"盈港东路2285号","购物;超市"
"福乐佳超市(徐盈路)",31.167586,121.269924,"前明村12号附近","购物;超市"
"华朕超市(蟠龙店)",31.184433,121.28152,"蟠龙居委会罗家69号","购物;超市"
"联华超市(明珠路)",31.175615,121.276163,"上海市青浦区明珠路305号","购物;超市"
"联都超市",31.163583,121.268577,"沪青平公路2103临附近","购物;超市"
"迪百超市(NO.168)",31.183799,121.280124,"罗家四队38","购物;超市"
"易购超市(盈港东路)",31.179151,121.282573,"盈港东路1545","购物;超市"
"诚实超市",31.17576,121.27879,"上海市青浦区","购物;超市"
"时代华联超市",31.164628,121.285007,"上海市青浦区联民路88弄8-101号附近","购物;超市"
"好又多超市(明珠店)",31.186354,121.271814,"上海市青浦区明珠路800号","购物;超市"
"乐美多超市(徐泾店)",31.183438,121.279266,"徐民路","购物;超市"
"华联超市(振良店)",31.174515,121.27724,"青浦区明珠路234-236号","购物;超市"
"世纪华联超市(育才店)",31.172187,121.273898,"徐泾镇育才路徐泾新区173号","购物;超市"
"联华超市(家芬店)",31.183851,121.266635,"振新佳苑281号","购物;超市"
"世纪华联超市(振新店)",31.185473,121.271464,"徐泾镇明珠路振新佳苑64号","购物;超市"
"联合一百超市",31.175442,121.27193,"徐径镇盈港东路2198号","购物;超市"
"明珠超市",31.185366,121.271208,"徐泾镇明珠路","购物;超市"
"莲花超市",31.180819,121.274197,"徐泾镇明珠路516弄105号","购物;超市"
"全家便利店(沪青平公路NO.3)",31.171479,121.277045,"沪青平公路2008号103室","购物;便利店"
"美惠全连锁超市",31.18065,121.274516,"明珠路天津包子旁","购物;超市"
"联合一百新区华联",31.172603,121.274686,"徐泾镇居委会一队新区266号","购物;超市"
"金湖世纪华联超市(徐泾店)",31.180404,121.27354,"明珠路与迮庵路交叉口西南50米","购物;超市"
"好又多超市",31.184845,121.269575,"上海市青浦区","购物;超市"
"联华超市(奕民店)",31.179588,121.283719,"上海市青浦区盈港东路1519号","购物;超市"
"如海超市",31.172445,121.274966,"徐泾镇育才路徐泾新区13","购物;超市"
"美惠全连锁超市",31.172689,121.275454,"徐泾镇徐泾村徐泾新村4号","购物;超市"
"徐泾鹤森生活广场超市唯伊美美妆",31.177743,121.284645,"徐泾镇明珠路森生活广场超市唯伊美","购物;超市"
"华联超市(上海市青浦区徐泾镇林业站东)",31.175236,121.284894,"上海市青浦区振泾路120弄2号-46","购物;超市"
"徐泾镇慈爱超市",31.176318,121.275305,"上海市青浦区","购物;超市"
"时代华联迮俺村店",31.181272,121.267486,"上海市青浦区","购物;超市"
"华鑫便利超市",31.169419,121.276583,"沪青平公路1975弄6号临附近","购物;超市"
"便利超市",31.178552,121.286067,"上海市青浦区","购物;超市"
"一窝峰超市",31.171989,121.281052,"上海市青浦区","购物;超市"
"好德便利店(京华店)",31.17823,121.280331,"上海市青浦区京华路300号","购物;便利店"
"快客便利店(徐泾店)",31.177189,121.276572,"盈港东路1896号","购物;便利店"
"青浦徐泾卫民杂货店",31.176346,121.28396,"育才路128号南","购物;便利店"
"惠客(徐泾店)",31.174811,121.283918,"振泾路120弄2号02","购物;超市"
"快客便利店(no.1249)",31.177189,121.276572,"盈港东路1896","购物;便利店"
"兴旺杂货店",31.169385,121.282356,"联民路462号附近","购物;超市"
"东方商场",31.172687,121.281537,"青浦区振泾路295号","购物"
"金叶杂货店",31.176828,121.275384,"盈港东路2000","购物;超市"
"芙蓉兴盛便利超市",31.172617,121.281525,"振泾路复美大药房旁(徐泾汽车站)","购物"
"上海顺歆食品店",31.175125,121.278137,"上海市青浦区","购物;超市"
"易捷便利店(前明村杜家新区东北)",31.164045,121.269057,"徐泾镇(前明村杜家新区东北)","购物;便利店"
"天兴便利店",31.174937,121.286171,"振泾路52号","购物;便利店"
"胖子日用百货",31.17714,121.286641,"华徐公路58号附近","购物"
"合作购物",31.184998,121.270035,"徐泾镇徐径镇明珠路785弄大众理发店对面","购物"
"金叶便利店NO.S048",31.172979,121.275414,"振泾路徐泾新区395号楼附93号","购物;便利店"
"兴德批发(总部)",31.177129,121.280516,"京华路251","购物;便利店"
"思思便利店",31.177581,121.275614,"青浦区明珠路368号","购物;便利店"
"易捷",31.179443,121.274815,"明珠路420号","购物;便利店"
"金叶便利(NO.215)",31.168358,121.283033,"联民路500号附近","购物"
"德兴批发部",31.175787,121.278327,"明珠路258号农贸市场东大门3号","购物;便利店"
"兴耘发部",31.175031,121.276951,"徐泾镇明珠路258号6号门面(近菜市场南大门)","购物;便利店"
"果多乐超市",31.180163,121.274361,"徐泾镇明珠路516弄31号","购物"
"利民杂货店",31.171746,121.273843,"明珠路258弄3号楼102室","购物"
"诚信金叶",31.177382,121.265014,"迮庵村278号","购物"
"思念农家土菜坊(盈港东路店)",31.18009,121.28371,"近郊青浦区徐泾镇盈港东路1518号(徐泾中路附近)","美食;中餐厅"
"欢凤杂货店",31.177362,121.264924,"青浦区徐泾镇迮庵二队","购物"
"city dia社区折扣超市",31.163997,121.285555,"联民路时代华联超市南","购物"
"小章副食品经营部",31.176079,121.278526,"徐泾镇京华西路小商品住宅8号楼","购物;便利店"
"景都便利商行",31.174165,121.278663,"上海市青浦区育才路439号","购物;便利店"
"青浦区恰海日用百货店",31.174684,121.27714,"明珠路246号","购物"
"兴德经营部",31.177145,121.28056,"京华路251号","购物"
"得芳杂货店",31.171644,121.278906,"振泾路443","购物"
"丽丽杂货店",31.175197,121.278327,"上海市青浦区","购物"
"立国杂货店",31.17464,121.28341,"上海市青浦区京华路90弄41号","购物"
"广虹食品经营部",31.177049,121.275464,"徐泾镇广虹公寓1号108室","购物"
"泾松副食品批发部",31.175755,121.278905,"京华路187号","购物"
"振华商品经营部",31.173205,121.282165,"振泾路260","购物"
"世纪华联超市(闵行区华漕镇石皮弄村卫生室东北)",31.212976,121.279778,"北青公路1688号","购物;超市"
"好又多(金联店)",31.196243,121.267594,"上海市青浦区明珠路1007号临","购物;超市"
"佳家乐超市(华徐公路)",31.200676,121.274721,"华徐公路671号附近","购物;超市"
"世纪华联超市林家桥店",31.211082,121.273853,"上海市闵行区石皮弄村蒋家塔队30号附近","购物;超市"
"沃天玛特生活超市",31.194233,121.269055,"双汇路明珠路","购物"
"佳吉平价超市",31.204746,121.267363,"泗沙路185号","购物;超市"
"金联超市(华徐公路店)",31.203238,121.273356,"华徐公路608","购物;超市"
"嘉联超市(NO.128)",31.210702,121.275189,"石皮弄村林家桥8号附近","购物;超市"
"福乐佳超市(闵行区华漕镇石皮弄村卫生室东北)",31.213328,121.280434,"北青公路(汽车综合性能检测上海市中心站南)","购物;超市"
"世纪超市",31.211648,121.275839,"闵行区北青公路轮胎销售对面","购物;超市"
"莲花超市(华徐店)",31.204198,121.271679,"华徐公路727临","购物;超市"
"罗森便利店(凯普狄诺园区店)",31.197162,121.271612,"徐德85号","购物;便利店"
"好惠多超市",31.212442,121.278194,"上海市闵行区","购物;超市"
"罗森(兰桥圣菲西)",31.21065,121.282455,"金辉路333弄","购物;便利店"
"快购便利店(NO.1)",31.210654,121.274065,"上海市闵行区","购物;便利店"
"旺角超市",31.201209,121.264758,"徐泾镇明珠路明珠家园3区213号(菜鸟驿站)","购物"
"金叶便利店N-O.S067",31.19642,121.267537,"上海市青浦区明珠路1013号-临","购物;便利店"
"为农综合服务站(金叶便利店)",31.196362,121.267532,"明珠路1011临","购物;便利店"
"豫元华超市批发零售",31.210937,121.275218,"华漕镇北青公路林家桥7号","购物;便利店"
"徐旺便利店",31.203357,121.268201,"徐旺路72临","购物;便利店"
"惠民超市",31.200209,121.264569,"明珠路西200米","购物"
"联合100蔬菜超市",31.198951,121.26476,"明珠路西200米","购物;超市"
"又好又多连锁超市",31.237818,121.274166,"卫星村跳桥4号","购物;超市"
"联华超市(华潮店)",31.220375,121.287233,"北青公路1068号","购物;超市"
"好又多超市",31.235197,121.274041,"华漕镇联友路卫星村电台路","购物;超市"
"嘉联超市(永寿桥店)",31.228091,121.276848,"卫星村永寿桥40号附近","购物;超市"
"如海超市(NO.1816)",31.234811,121.284028,"红卫村陈三房34号附近","购物;超市"
"如海超市",31.230534,121.277208,"华漕镇纪王镇联友路卫星村八字桥3号","购物;超市"
"好多多连锁超市",31.228824,121.278125,"卫星村永寿桥6号附近","购物;超市"
"美惠全连锁超市(no.117)",31.23278,121.285192,"纪翟路1441-临","购物;超市"
"世纪华联超市NO.1388店",31.232287,121.287462,"上海市闵行区","购物;超市"
"莲花超市(联友店)",31.219188,121.283037,"诸翟镇","购物;超市"
"金湖世纪华联连锁超市",31.222957,121.279329,"朱建路费更浪11号","购物;超市"
"世纪华联NO.626店",31.238314,121.281101,"上海市闵行区","购物;超市"
"世纪华联超市(朱建路店)",31.220473,121.273751,"上海市闵行区朱家泾村东横泾队35号附近","购物;超市"
"乐购超市",31.235349,121.276617,"华漕镇卫星村龚家巷4号","购物;超市"
"联合一百购物中心NO.沪3988",31.226145,121.288536,"纪翟路1158号","购物;超市"
"华联超市(闵北路)",31.219202,121.282422,"联友路","购物;超市"
"联友超市",31.215633,121.285537,"联友路30号附近","购物;超市"
"嘉联超市",31.238074,121.274874,"上海市闵行区","购物;超市"
"好又多(红卫店)",31.234501,121.287094,"纪翟路1457号","购物;超市"
"天天超市",31.223175,121.279998,"朱家泾村费更浪队4号附近","购物;超市"
"卫星联华超市",31.234862,121.275045,"联友路1803临","购物;超市"
"好乐多超市",31.229836,121.270202,"上海市闵行区","购物;超市"
"新时代超市",31.220184,121.272194,"陈行路附近","购物;超市"
"世纪超市(朱家泾店)",31.228264,121.287292,"纪翟路朱家泾26号","购物;超市"
"易生活连锁超市(NO.219)",31.235738,121.275215,"上海市闵行区","购物;超市"
"生活购物中心",31.235094,121.271801,"上海市闵行区","购物;超市"
"北京现代超市",31.224172,121.281984,"朱建路41号附近","购物;超市"
"福乐佳超市朱家泾店",31.216748,121.277631,"闵北路810号948号","购物;超市"
"利民便利朱家泾店",31.227817,121.28752,"纪翟路1190号附近","购物;便利店"
"阳光便利店",31.233946,121.275447,"华漕镇联友路1803号卫星村农贸市场西侧公交站台","购物;便利店"
"四海超市",31.234372,121.274209,"联友路毕家塔81号(卫星村农贸市场里面)","购物"
"诸翟金更浪杂货店",31.216301,121.288566,"北青公路","购物;便利店"
"小李杂货店",31.223582,121.280786,"朱建路120号附近","购物;便利店"
"闵行区联友杂货店",31.215594,121.285538,"联友路","购物;便利店"
"云子水果超市",31.22028,121.273238,"朱建路762号附近","购物;超市"
"世纪嘉联(李家塔店)",31.24378,121.267901,"纪西村李家塔29号","购物;超市"
"元华超市(纪翟店)",31.239955,121.280689,"纪翟路1686号(近纪梅路)","购物;超市"
"如海超市",31.2472,121.279679,"纪王村北一村","购物;超市"
"苏果超市(纪鹤路)",31.252627,121.273247,"纪翟路与纪鹤路交叉口北60米路西","购物;超市"
"好乐多超市(纪王店)",31.253509,121.271362,"赵家村沈家角59","购物;超市"
"联华超市(纪王店)",31.243656,121.277337,"闵行纪高路535-539号(近纪翟路)","购物;超市"
"联华超市(纪王店)",31.245673,121.277137,"上海市闵行区纪川路1号","购物;超市"
"如海超市(纪鹤路店)",31.250309,121.265346,"纪鹤路255号","购物;超市"
"谷春乐超市(鹫山店)",31.248232,121.264587,"纪王镇","购物;超市"
"世纪华联生活购物中心",31.260448,121.265233,"纪王镇赵家村赵家路北场43号","购物;超市"
"好又多连锁超市",31.245256,121.279969,"上海市闵行区华漕镇纪王村孙家场62号-纪顺路路口","购物;超市"
"联华超市(周泾路店)",31.246513,121.269408,"纪王镇(近周泾路)","购物;超市"
"如海超市",31.254874,121.276282,"北祥巷50号","购物;超市"
"万喜福正品超市",31.249425,121.28225,"纪东村纪北6号","购物;超市"
"新世纪华联超市",31.253382,121.271852,"上海市闵行区赵家村黄家巷41号","购物;超市"
"好又多生活超市",31.244829,121.270958,"上海市闵行区纪西村苏家塔30号附近","购物;超市"
"怏客超市",31.241901,121.279581,"纪翟路1696附近","购物;超市"
"福乐佳超市福乐佳店",31.247213,121.271916,"联友路2360弄58号附近","购物;超市"
"世纪华联",31.243021,121.267811,"纪丰路128上海世尚家具制造有限公司附近","购物;超市"
"好又多超市",31.249268,121.282165,"华漕镇纪中路57号旁边","购物;超市"
"家乐佳超市(联友路)",31.258846,121.265817,"联友路2900号3000号","购物;超市"
"家家乐超市",31.244813,121.278952,"纪高路456号","购物;超市"
"友一家超市",31.241903,121.28288,"韦北59号","购物;超市"
"嘉联超市(纪王店)",31.251531,121.268886,"纪鹤路瑶发宾馆旁","购物;超市"
"世纪华联超市(高家浜)",31.246496,121.288885,"纪友路华漕镇纪东村高家浜小区(高家浜)附近","购物;超市"
"好乐多购物",31.251501,121.283492,"上海市闵行区","购物;超市"
"福乐佳超市(联友路)",31.258358,121.265911,"联友路2900号3000号","购物;超市"
"家乐佳超市",31.25247,121.282615,"纪中路99-7号临附近","购物;超市"
"安吉晓华菜场纪王直销行",31.244436,121.278915,"纪高路158号30室","购物;超市"
"嘉联超市",31.250866,121.280892,"纪王村沿浦28号附近","购物;超市"
"新世纪华联高家浜分店",31.246917,121.288086,"纪友路","购物;超市"
"好来多超市",31.250928,121.274529,"纪翟路2793附近","购物;超市"
"万得福超市",31.244008,121.270799,"上海市闵行区","购物;超市"
"余家连锁购物中心纪高路店",31.240794,121.268952,"上海市闵行区","购物;超市"
"世纪华联",31.249704,121.282886,"纪中路99-3临","购物;超市"
"福乐佳超市(李家塔)",31.244537,121.268333,"诸家塔附近","购物;超市"
"乐乐家超市纪王店",31.24053,121.269318,"纪高路1293号","购物;超市"
"如海购物中心",31.253634,121.273789,"纪鹤路复美大药房附近","购物;超市"
"百惠超市no.108",31.250271,121.279687,"上海市闵行区","购物;超市"
"上海欣海超市",31.247457,121.272605,"联友路2360弄70-72号","购物;超市"
"移动通信友佳便利",31.246744,121.27013,"华漕镇华漕镇纪王纪西村郁家宅28号友佳便利喜洋洋幼儿园大门对面","购物"
"闽祥五金油漆批发",31.252336,121.273247,"纪翟路2988号3100号","购物;便利店"
"21便利店",31.244873,121.278278,"上海市闵行区","购物;便利店"
"21世纪便利店(纪翟路店)",31.244776,121.278313,"纪翟路1831","购物;便利店"
"华漕镇春庆烟杂店",31.251929,121.281844,"纪淞路89号附近","购物;便利店"
"金湖便利",31.253686,121.28427,"解放岛路8号","购物;便利店"
"纪王申锋烟杂店",31.259085,121.265773,"联友路2900号3000号","购物;便利店"
"易购便利店",31.248667,121.275429,"联友路2360弄135临","购物;便利店"
"华漕贝尼商场",31.241364,121.27988,"纪翟路1688-5临","购物;便利店"
"纪王新兴烟杂店",31.249236,121.278313,"纪淞路156号附近","购物;便利店"
"平价便利店",31.243596,121.27914,"华漕镇纪翟路1767号","购物;便利店"
"上海市闵行区纪王烟糖商店",31.247972,121.279355,"纪信路","购物;便利店"
"招娣烟杂店",31.240068,121.281582,"纪翟路1625弄148号","购物"
"QQ之秀",31.245852,121.278538,"华漕镇纪王镇纪中路孙家场4号","购物"
"振联综合经销部",31.240574,121.269421,"纪高路1293临","购物"
"万德福超市",31.243958,121.270822,"联友路苏家塔38号","购物"
"滨宏百货店",31.250275,121.282818,"纪中路79号","购物"
"鑫龙五金店",31.251394,121.267803,"纪鹤路138号","购物"
"娟娟杂货店",31.240189,121.281673,"纪翟路1625弄150号101-102","购物"
"李华水果超市",31.245719,121.27778,"纪翟路1857-5临","购物;超市"
"东方红超市(NO.018)",31.280903,121.275799,"安亭镇","购物;超市"
"如海超市(曹安路店)",31.278745,121.278005,"曹安公路3988号(近曹丰路)","购物;超市"
"万家福超市(李家路)",31.278231,121.270709,"李家路218号","购物;超市"
"钱家超市",31.276104,121.267343,"曹联支路18-5","购物;超市"
"好又多",31.279883,121.286713,"星华公路2365-2369号附近","购物;超市"
"好运多超市",31.287293,121.271433,"江桥镇太平村280号附近","购物;超市"
"嘉联超市",31.271601,121.274238,"曹丰路西150米","购物;超市"
"家里来超市",31.279093,121.283317,"翔江公路2269号","购物;超市"
"联家超市",31.284043,121.265197,"宝园七路79号131号","购物;超市"
"跃鍪兰突联超市",31.28247,121.278471,"江桥封浜镇星华公路2670弄","购物;超市"
"世纪华联联星路",31.271554,121.265665,"联冯路58号附近","购物;超市"
"星华超市",31.280706,121.279804,"星华公路附近","购物;超市"
"保来超市",31.275292,121.276712,"曹丰路619号","购物;超市"
"世纪超市NO.1689",31.278518,121.266274,"曹联支路开心便利西北侧","购物;超市"
"邦岑石材精品超市",31.281534,121.271646,"曹安公路4068号","购物;超市"
"惠民超市(新江店)",31.275063,121.276692,"曹封路619号","购物;超市"
"便民超市",31.279796,121.286926,"上海市嘉定区星华公路2308","购物;超市"
"佳佳超市(曹安店)",31.277758,121.278206,"安亭镇曹安公路3969号","购物;超市"
"圆圆超市",31.286373,121.279666,"上海市嘉定区","购物;超市"
"世纪超市",31.280619,121.281134,"星华公路2666号附近","购物;超市"
"易购超便利(兴丰店)",31.265729,121.281664,"解放岛路248号260号","购物;便利店"
"惠民(红卫店)",31.271382,121.268764,"冯东路新江村347号","购物;便利店"
"易捷便利店(曹安公路)",31.275326,121.284118,"曹安路3885号","购物;便利店"
"开心便利",31.278403,121.266402,"曹联支路13号附近","购物;便利店"
"幸福便利店",31.280395,121.285053,"江桥镇封浜村星华公路2428号对面","购物;便利店"
"金梅便利店",31.28805,121.281574,"翔江公路1788号附近","购物;便利店"
"意兴批发总汇",31.270599,121.275,"曹丰路331号377号","购物;便利店"
"昆仑好客",31.28186,121.270597,"上海市嘉定区","购物"
"洋溢惠民生鲜超市(李家楼店)",31.27805,121.27057,"黄渡李家楼","购物;超市"
"嘉好超市",31.307861,121.270756,"嘉好路1558附近","购物;超市"
"联华超市(祥亨店)",31.295476,121.283599,"嘉定区翔江公路1258号","购物;超市"
"佳得乐超市",31.301362,121.279925,"胜辛南路300号","购物;超市"
"惠民超市(新裕店)",31.308414,121.275809,"胜辛南路800号","购物;超市"
"新时代华联超市(胜辛店)",31.300596,121.279933,"嘉定区华新镇白马塘村218号","购物;超市"
"信惠超市",31.289538,121.28197,"上海市嘉定区翔江公路1699号-临","购物;超市"
"易购超市",31.298589,121.281738,"胜辛南路185号-1","购物;超市"
"启文超市",31.298806,121.281487,"胜辛南路185-10号附近","购物;超市"
"世纪华联(吉李村)",31.298188,121.275457,"胜辛南路355弄1号(吉李村)","购物;超市"
"绣购福乐家超市",31.298037,121.275225,"胜辛南路355弄416号附近","购物;超市"
"金湖世纪超市",31.296487,121.286138,"翔江公路1185-2号","购物;超市"
"华联超市(翔裕店)",31.297459,121.283473,"南翔镇胜辛南路60号","购物;超市"
"美乐佳超市",31.296707,121.283522,"胜辛南路85号","购物;超市"
"福乐佳超市火线店",31.288853,121.288694,"倪家桥路东50米","购物;超市"
"新时代超市",31.300563,121.280048,"上海市嘉定区胜辛南路305号","购物;超市"
"福乐佳超市(NO.1228)",31.294673,121.282723,"翔江公路1288号附近","购物;超市"
"易捷便利店(小龚村店)",31.304019,121.277472,"胜辛南路499号","购物;便利店"
"忠明杂货店",31.313464,121.285955,"惠平路与永盛南路交叉口东北50米","购物"
"张家港好又多生活购物广场马陆店",31.331526,121.275511,"宝安公路3705弄1号128室东","购物;超市"
"如海超市(NO.1831)",31.328254,121.270476,"宝安公路3799弄765号附近","购物;超市"
"来宾超市",31.329154,121.277916,"宝安公路3705弄161号101室","购物;超市"
"世纪华联超市(云谷路)",31.334171,121.264011,"云谷路294号","购物;超市"
"百益超市",31.327797,121.272687,"嘉定区宝安公路和平杂货店旁","购物;超市"
"世纪闽联超市",31.328733,121.271988,"上海市嘉定区","购物;超市"
"鸿良超市",31.330525,121.275324,"上海市嘉定区宝安公路3705弄190号104室","购物;超市"
"快客便利店(no.5388)",31.325112,121.283809,"崇文路1095号(近康丰路)","购物;便利店"
"永盛超市",31.338188,121.271727,"双单路718号永盛公寓商用房","购物;超市"
"浙海超市",31.33015,121.271826,"永盛路与宝安公路交叉口西200米","购物;超市"
"易购超市",31.331178,121.274602,"宝安公路包装城大楼东楼西50米","购物;超市"
"快客便利店(NO.6762)",31.330612,121.27517,"宝安公路3705弄187-103～104号附近","购物;便利店"
"快客便利店(no.5561)",31.334171,121.264011,"嘉定区马陆镇云谷路294号","购物;便利店"
"马陆易购便利店",31.334713,121.284952,"育英街617号","购物;便利店"
"育英便利",31.332881,121.285479,"育英街503号","购物"
"惠民超市(育英店)",31.333249,121.286594,"马陆樱花街118号","购物"
"惠民超市(育兰店)",31.335055,121.288384,"育兰路55弄51临","购物;便利店"
"惠民超市(祖泉店)",31.334758,121.284615,"马陆镇宝安公路3503-2号","购物"
"一都赞宝岛食品商行",31.332718,121.279164,"宝安公路3635号","购物;便利店"
"米壹佰便利店(崇文路)",31.324509,121.2827,"马陆镇崇文路1202号(玲珑坊)","购物;便利店"
"易捷便利店(胜辛南路)",31.313786,121.273364,"胜辛南路1180号","购物;便利店"
"好的",31.3319,121.286633,"上海市嘉定区樱花街111弄45号上海百有商城1层","购物;便利店"
"富贵批发部",31.329728,121.274186,"宝安公路3705号A区262号101号","购物;便利店"
"上海正爽商贸",31.330616,121.275299,"上海市嘉定区宝安公路3705弄-101号-103室","购物"
"仁义杂货店",31.333057,121.285998,"育英街530号534号","购物;便利店"
"张家杂货店",31.335918,121.288858,"育兰路13号附近","购物;便利店"
"红苹果园",31.335139,121.288887,"上海市嘉定区育兰路59号","购物;超市"
"苹果园大卖场(马陆店)",31.333819,121.285351,"马陆镇育英街571号","购物;超市"
"龙国经营部",31.330283,121.276622,"宝安公路3705号包装城112号101-102号","购物"
"苏州阿小量贩零食",31.332154,121.288097,"樱花街125弄59-60号","购物"
"全佳食品经营部",31.329027,121.277802,"包装城78-104","购物"
"向飞食品经营部",31.330523,121.276128,"上海市嘉定区宝安公路3705弄-107号-101-～102室","购物"
"顺昌商行",31.336068,121.288828,"育兰路138号","购物"
"和平杂货店",31.328143,121.272799,"马陆镇汽配城a区38幢","购物"
"黎杨杂货店",31.334505,121.287235,"上海市嘉定区樱花街111弄45号上海百有商城1层","购物"
"秀芳杂货店",31.335446,121.288838,"上海市嘉定区育兰路81号","购物"
"宝增蔬菜店",31.328373,121.274907,"宝安公路3705弄302号附近","购物;超市"
"诚信超市(双丁路)",31.344077,121.277659,"双丁路232号386号","购物;超市"
"美惠全超市(封周路)",31.339475,121.281579,"马陆镇封周路360","购物;超市"
"联华超市(彭赵店)",31.361517,121.27993,"马陆镇彭赵村丰登路1551弄","购物;超市"
"嘉沛便民超市",31.361966,121.274078,"沪宜公路2836号","购物;超市"
"如海超市(彭封路店)",31.35137,121.287621,"彭封路184号","购物;超市"
"鲜德宝生活超市",31.340054,121.281924,"裕民南路附近","购物;超市"
"义乌小商品(直销超市店)",31.34942,121.285271,"上海市嘉定区嘉定新城沪宜公路2618号（彭封路口，沃尔玛后面停车场内）","购物;超市"
"上海嘉联超市(石岗)",31.353184,121.27727,"石冈路(石岗)","购物;超市"
"罗森便利店(瑞金北院店)",31.340498,121.264891,"希望路999号瑞金医院北院门诊大厅内(近双丁路)","购物;便利店"
"欣欣超市",31.341875,121.287916,"嘉定区封周路灵敏五金建材旁","购物;超市"
"全佳超市",31.341169,121.288852,"沪宜公路天马新村","购物;超市"
"精品百货超市",31.351614,121.288225,"彭封路188号附近","购物;超市"
"上海嘉联超市(双单路)",31.343768,121.285186,"双单路258号附近","购物;超市"
"戬浜供销超市(仓场店)",31.360159,121.285709,"嘉新公路886号","购物;超市"
"快客便利店(no.5589)",31.355561,121.265562,"马陆镇阿克苏路1331号","购物;便利店"
"罗森便利店(裕民南路)",31.357205,121.268896,"裕民南路1377号(嘉定图书馆)","购物;便利店"
"实惠百货超市",31.36312,121.273229,"沪宜公路2852号附近","购物;超市"
"好邻居便利店(裕民南路)",31.36277,121.267612,"裕民南路1681号","购物;便利店"
"小马粮油蔬菜店",31.35157,121.287915,"上海市嘉定区","购物;超市"
"棕坊综合商店",31.363084,121.272681,"沪宜公路2857号2903号","购物;便利店"
"芳芳易购超便利",31.355399,121.278933,"沪宜公路2694号2748号","购物;便利店"
"名诚综合商行",31.362197,121.273894,"沪宜公路2840号附近","购物;便利店"
"超市・水站",31.353761,121.266153,"阿克苏路1187号大卫国际大厦附近","购物"
"金木易购超便利",31.356396,121.277927,"沪宜公路2694号2748号","购物;便利店"
"快客便利店(no.5579)",31.349462,121.265112,"上海市嘉定区","购物;便利店"
"乡巴佬(裕民南路店)",31.340257,121.281818,"裕民南路337号","购物;超市"
"石岗杂货店",31.355691,121.278628,"沪宜公路2694号2748号","购物;便利店"
"立明杂货店",31.343679,121.283982,"双单路18号138号","购物;便利店"
"顺风杂货店(九洲公寓东南)",31.35699,121.277523,"沪宜公路2754号附近","购物;便利店"
"红泓杂货店(嘉定店)",31.361044,121.287737,"丰登路2788号附近","购物;便利店"
"彭赵综合经营部",31.35064,121.286446,"上海市嘉定区","购物"
"农工商超市(嘉定店)",31.387701,121.275232,"仓场路428号(仓场路与新成路交叉口)","购物;超市"
"联华超市(嘉华店)",31.386703,121.269184,"仓场路2960-2970号","购物;超市"
"上海如海超市(no.2216)",31.372949,121.266465,"沪宜公路3148号","购物;超市"
"华联超市(嘉定店)",31.386834,121.270762,"嘉定区仓场路2800号","购物;超市"
"天天乐超市",31.364912,121.271334,"沪宜公路2857号2903号","购物;超市"
"福乐佳超市(嘉定区建设工程招投标管理办公室东南)",31.376515,121.27666,"嘉新公路225号(嘉定区建设工程招投标管理办公室东南)","购物;超市"
"美惠全连锁超市no.152",31.386623,121.284474,"墅沟路59","购物;超市"
"葛家宅超市",31.367754,121.281552,"嘉新公路757号","购物;超市"
"惠民超市(新联店)",31.368972,121.280157,"嘉新公路688-4号","购物;超市"
"全家便利店(沪宜公路店)",31.374642,121.264635,"沪宜公路3109号(近苏宁)","购物;便利店"
"福万家超市(周赵路)",31.375196,121.287543,"周赵路611号附近","购物;超市"
"连都超市",31.364719,121.270689,"洪德路1号","购物;超市"
"华联超市(周赵店)",31.37769,121.286565,"周赵路658号","购物;超市"
"环利超市",31.383994,121.286603,"上海市嘉定区澄浏中路2499号","购物;超市"
"全家便利店(仓场路)",31.386594,121.271659,"嘉定城区仓场路2883号","购物;便利店"
"好又多超市",31.377847,121.286425,"周赵路658号","购物;超市"
"嘉鑫超市",31.366401,121.282729,"嘉新公路769临","购物;超市"
"惠民超市",31.388469,121.279834,"新成路街道仓场路331号","购物;超市"
"联发(no.0188)",31.386594,121.271659,"仓场路2881-1","购物;超市"
"山东水果大卖场(申霞路)",31.375825,121.287198,"周赵路544号(近申霞路)","购物;超市"
"申裕超市no.668",31.368096,121.284401,"上海市嘉定区","购物;超市"
"周泾超市",31.387014,121.272738,"上海市嘉定区","购物;超市"
"琦翔超市",31.376405,121.286875,"上海市嘉定区","购物;超市"
"中国联通亲情超市(周赵路)",31.377074,121.286425,"周赵路647号附近","购物;超市"
"快客便利店(no.5562)",31.385804,121.28576,"澄浏中路2547","购物;便利店"
"快客便利店(no.1407)",31.383977,121.274658,"墅沟路560号","购物;便利店"
"易捷便利店(蓝宫大饭店南)",31.38151,121.268356,"博乐南路128号(蓝宫大饭店南)","购物;便利店"
"喜士多便利店(嘉罗公路)",31.384818,121.268888,"上海市嘉定区嘉罗公路354号","购物;便利店"
"好德便利店(仓场店)",31.386876,121.271359,"仓场路2404号2410号","购物;便利店"
"马龙易购超便利",31.376457,121.276445,"嘉新公路187号297号","购物;便利店"
"新大陆平价便利店",31.375155,121.287585,"马陆镇申霞路与周赵路交叉口南20米","购物;便利店"
"友谊便利店(申霞路)",31.375966,121.287539,"周赵路543号(近申霞路)","购物;便利店"
"兴隆易购超便利",31.380885,121.284198,"周赵路619号729号","购物;便利店"
"新大陆超便利",31.375185,121.287557,"周赵路611号附近","购物;便利店"
"杏子水果专卖店",31.374907,121.287736,"马陆镇周赵路824号","购物;超市"
"桐语商店",31.382508,121.282696,"马陆镇嘉戬公路303号","购物;便利店"
"惠民仓场店",31.367826,121.28218,"上海市嘉定区","购物"
"芳芳杂货店(嘉戬公路店)",31.382307,121.281202,"嘉戬公路315号附近","购物;便利店"
"为明杂货店(仓场村葛家宅西北)",31.367696,121.281679,"嘉新公路683号751号","购物;便利店"
"正英杂货店",31.369755,121.279787,"嘉新公路692号附近","购物;便利店"
"老刘杂货店",31.377465,121.286632,"周赵路658号附近","购物;便利店"
"新联杂货店",31.375933,121.287566,"申霞路264号附近","购物;便利店"
"正明杂货店",31.367304,121.275691,"嘉新公路672号附近","购物;便利店"
"惠民生鲜超市(远香舫店)",31.364851,121.266851,"裕民南路1777弄2号附近","购物;超市"
"远香舫生鲜超市",31.36493,121.266801,"上海市嘉定区","购物;超市"
"水果篮子果品超市",31.386612,121.284424,"墅沟路61号","购物;超市"
"嘉缘天天鲜果业(迎园店)",31.388128,121.271987,"迎园路703-709","购物;超市"
"荣华生鲜超市",31.388249,121.271958,"上海市嘉定区","购物;超市"
"周泾副食新城门市部",31.387014,121.272778,"仓场路2750号(近新城门市部)","购物"
"欧尚超市(嘉定澄浏店)",31.391109,121.284899,"上海市嘉定区仓场东路382号地下1层","购物;超市"
"迪卡侬(澄浏店)",31.391094,121.285825,"上海市嘉定区仓场东路348号(近澄浏路口)","购物;超市"
"欧尚",31.391118,121.284843,"上海市嘉定区仓场东路","购物;超市"
"联华超市(鑫龙店)",31.392268,121.279008,"上海市嘉定区迎园路283号","购物;超市"
"联华超市(平城店)",31.405041,121.264069,"上海市嘉定区平城路305号","购物;超市"
"嘉联超市",31.412796,121.26906,"永新路750号","购物;超市"
"联华超市(徐行村店)",31.409672,121.285244,"上海市嘉定区徐行镇徐行村43号附近","购物;超市"
"惠民生鲜超市(城东店)",31.40112,121.272695,"嘉罗公路1305号(近永新路)","购物;超市"
"惠民超市(新众店)",31.397742,121.281894,"新城路街道澄浏中路3398号1楼","购物;超市"
"家家乐超市(永峰新苑东)",31.399886,121.26917,"宝嘉公路263号(永峰新苑东)","购物;超市"
"玉秀百货超市",31.398909,121.27067,"新成路918附近","购物;超市"
"上海如海连锁超市",31.389605,121.283083,"仓场路店","购物;超市"
"美惠全连锁超市no.181",31.40371,121.276606,"嘉罗公路1451号","购物;超市"
"惠民超市(永胜店)",31.408714,121.269254,"永新路399号","购物;超市"
"世纪超市嘉罗店(嘉罗公路店)",31.399528,121.268145,"嘉罗公路1081弄101号(永峰新苑东南)","购物;超市"
"全家便利店(永靖路店)",31.410404,121.264535,"永靖路801号","购物;便利店"
"万家超市",31.397066,121.274894,"和政路893号","购物;超市"
"新如海超市澄桥店",31.404228,121.278321,"上海市嘉定区","购物;超市"
"嘉定区爱心慈善超市",31.393775,121.271473,"塔城东路482号","购物;超市"
"好德（便利店）",31.388903,121.27938,"仓场路348号","购物;便利店"
"秀娟杂货店",31.392181,121.277552,"迎园路302号","购物;超市"
"易捷便利店(塔新路店)",31.397212,121.286984,"塔新路855号","购物;便利店"
"快客便利店(no.1356)",31.393186,121.267518,"嘉罗公路657号","购物;便利店"
"好德(便利店)",31.392151,121.278892,"上海市嘉定迎园路287号","购物;便利店"
"好德(便利店)",31.389857,121.271716,"迎园路594","购物;便利店"
"良友金伴便利店(迎园路店)",31.389951,121.271765,"迎园路590号","购物;便利店"
"小万水果大卖场新成路总店",31.391296,121.273243,"新成路523-529号（近迎园菜场）","购物;超市"
"快客便利店(no.1443)",31.389857,121.264307,"金沙路213号","购物;便利店"
"快客便利店(no.6741)",31.404283,121.264998,"永靖路288弄132","购物;便利店"
"快客便利店(no.6317)",31.388809,121.279062,"仓场路354-1临","购物;便利店"
"好德(便利店)",31.392787,121.269456,"塔城东路493-2号","购物;便利店"
"便利店(永新路)",31.400298,121.272247,"新成路(近永新路)","购物;便利店"
"萍萍便利店",31.392818,121.269575,"塔城东路493弄1号","购物;便利店"
"联华快客",31.404533,121.266603,"永靖路288弄132号1楼室","购物;便利店"
"安居杂货店",31.392568,121.268754,"塔城东路495-2","购物;便利店"
"阿平水果大卖场",31.388695,121.278693,"仓场路364","购物;超市"
"新成路街道振堂杂货店",31.392487,121.279723,"茹水路1180弄附近","购物;便利店"
"惠民(迎园店)",31.389777,121.271535,"迎园中路604号","购物;便利店"
"灵山百货",31.403016,121.276229,"嘉罗公路1419-1423附近","购物;便利店"
"上海良山百货有限公司",31.404037,121.277308,"嘉罗公路1495号附近","购物;便利店"
"可德便利(嘉定环城路)",31.397994,121.2647,"环城路64","购物;便利店"
"嘉嘉便利",31.398573,121.266832,"嘉罗公路1052号","购物;便利店"
"小张便利店",31.390017,121.275274,"迎园中路512号","购物;便利店"
"便民商店",31.39982,121.269089,"嘉罗公路1101号1303号(宝嘉公路)","购物;便利店"
"嘉合购物",31.390496,121.26832,"嘉罗公路463-1","购物"
"嘉定华源综合经营部",31.399651,121.269717,"嘉罗公路248号112室","购物;便利店"
"联合一百",31.402931,121.267047,"棋盘路773附近","购物"
"房乐迎园综合经营部",31.391175,121.268274,"嘉罗公路499","购物;便利店"
"飞达杂货店",31.404123,121.277783,"嘉罗公路1515号附近","购物;便利店"
"上海绿宇商行",31.393648,121.270896,"塔城东路486-7号","购物;便利店"
"凌易杂货店",31.403545,121.263918,"上海市嘉定区永靖路219号","购物;便利店"
"春桥杂货店",31.399313,121.268791,"旺仔烧烤附近","购物;便利店"
"时代联华购物中心徐行店",31.421743,121.280382,"徐行镇澄浏公路543号","购物;超市"
"得利超市(NO.168)",31.420083,121.273642,"新建一路2275号","购物;超市"
"壹分利购物超市",31.42049,121.277739,"新建一路2144临","购物;超市"
"万家乐超市(曹新路)",31.424741,121.272972,"曹新公路3000号102室附近","购物;超市"
"嘉联超市(徐行店)",31.41728,121.270753,"徐行镇杨顾村勤学路726号","购物;超市"
"福乐佳平价超市",31.421804,121.277092,"新建二路804号","购物;超市"
"引胜超市",31.424606,121.27358,"上海市嘉定区","购物;超市"
"百惠超市",31.424983,121.264354,"曹新路3539临","购物;超市"
"快客便利店(徐行店)",31.42002,121.280202,"澄浏公路481号(徐行镇徐行社区居民委员会东南)","购物;便利店"
"惠民(新谭店)",31.426206,121.270866,"伏弄路附近","购物;便利店"
"秋华杂货店",31.422723,121.284678,"徐行镇新建一路1668弄69号","购物;便利店"
"旺盛杂货门市部",31.420422,121.279704,"新建一路101号","购物;商铺"
"平价百货自选店",31.418338,121.280515,"徐浦路12号附近","购物;便利店"
"惠民(钱桥店)",31.43372,121.282922,"棒棒路澄浏公路路口附近","购物;便利店"
"桥头综合商店",31.420114,121.278808,"新建一路2115号附近","购物;便利店"
"喜多多超市",31.436144,121.283232,"澄浏公路807号","购物"
"苏沪老王批发部",31.42059,121.2836,"徐行镇新建一路569号","购物;便利店"
"彩娥综合经营部",31.419698,121.279697,"澄浏公路463号附近","购物;便利店"
"好得来杂货店(澄浏公路)",31.416158,121.279755,"徐行镇澄浏公路303号","购物;便利店"
"秀红杂货店",31.423585,121.280583,"启悦路与曹新路交叉口西北50米","购物"
"好多多超市(澄浏店)",31.449877,121.282618,"澄浏公路988号","购物;超市"
"盼盼便利超市",31.448991,121.282905,"华亭镇星桥村339号","购物;超市"
"嘉定区徐行镇为全杂货店",31.444487,121.26801,"伏弄路附近","购物;便利店"
"欧润发生活购物广场",31.032336,121.301131,"上海市松江区","购物;超市"
"世纪华联超市(锦昔路)",31.037687,121.290149,"上海市松江区锦昔路100弄附近","购物;超市"
"如海超市(云天大楼西)",31.030809,121.300626,"茸江路沙县小吃旁(近南乐路)","购物;超市"
"苏果超市(南乐路店)",31.030651,121.301244,"南乐路518号","购物;超市"
"莱超市",31.033248,121.293935,"上海市松江区","购物;超市"
"好又多购物中心",31.033406,121.30804,"茸华路76号","购物;超市"
"乐淘生活超市",31.035153,121.295842,"车墩镇松江出口加工区联阳路联阳小区62栋","购物;超市"
"苏果超市(车墩茸华路店)",31.031,121.308231,"南乐路与茸华路交叉口西北侧20米","购物;超市"
"如海超市",31.035838,121.297339,"三浜路重庆小面旁","购物;超市"
"上海爱家生活超市",31.036475,121.297405,"车墩镇南乐路与联阳路交叉口联阳小区87号","购物;超市"
"万家红超市",31.037065,121.29774,"茸江路沙县小吃旁","购物;超市"
"美惠全连锁超市no.198",31.033537,121.308398,"茸华路兰州牛肉面旁","购物;超市"
"松东超市南乐路店",31.030301,121.3112,"上海市松江区南乐路19号","购物;超市"
"华联超市",31.037492,121.301454,"上海市松江区茸江路108、109、110、111、112、208号","购物;超市"
"万丰百货超市",31.037133,121.303227,"茸江路159-160号","购物;超市"
"德胜超市(北闵店)",31.016941,121.3069,"北闵路850号附近","购物;超市"
"711便利店(广达城店)",31.030096,121.298148,"南乐路168号(近出口加工区)","购物;便利店"
"美惠全连锁超市(NO.276)",31.036161,121.297235,"上海市松江区","购物;超市"
"晴晴生活超市",31.036909,121.297623,"上海市松江区三浜路","购物;超市"
"新松超市",31.020061,121.309398,"上海市松江区","购物;超市"
"家荧超市(联阳路店)",31.03259,121.2933,"上海市松江区松胜路","购物;超市"
"多乐好超市",31.014244,121.306375,"莘莘路与北闵路交叉口旁","购物;超市"
"快客便利",31.02018,121.310783,"车墩镇北松公路5208号乡港宾馆隔壁","购物;便利店"
"金国便利店",31.037737,121.308379,"上海市松江区康电路38号","购物;便利店"
"易捷便利店(创嘉路)",31.017296,121.313526,"车亭公路35号","购物;便利店"
"安居百货超市",31.020191,121.310281,"北松公路5209附近","购物"
"利达便利店",31.030843,121.309149,"车墩镇南乐路168号","购物;便利店"
"联合一百(新松超市)",31.019938,121.309875,"北松公路5180号","购物;便利店"
"晴晴百货",31.037187,121.301948,"康电路雅致简约旅馆附近","购物;便利店"
"快客便利店(康电路)",31.037334,121.303249,"茸江路71号附近","购物;便利店"
"青红烟糖商店",31.021419,121.313792,"虬长路304号附近","购物;便利店"
"优购购物广场",31.029626,121.29158,"联阳路12弄1幢","购物"
"百惠超市",31.035462,121.296015,"松胜路为民快餐店旁","购物"
"瓯易便捷超市",31.013913,121.306375,"莘莘路与北闵路交叉口旁","购物"
"蔬果超市",31.037415,121.297931,"上海市松江区三浜路","购物;超市"
"辉程百货",31.037518,121.302146,"茸江路91号附近","购物"
"百味果",31.031532,121.300366,"松江工业区","购物"
"欧润发生活超市",31.062781,121.291893,"上海市松江区新庙三路869号-1幢","购物;超市"
"惠购超市",31.059699,121.295724,"上海市松江区","购物;超市"
"好又来超市",31.058639,121.291942,"新桥镇新庙三路628号","购物;超市"
"好又多超市",31.039717,121.309957,"赵家泾路88号","购物;超市"
"苏果超市(新桥新庙三路店)",31.06279,121.291974,"新庙三路871号","购物;超市"
"便利超市",31.060543,121.304971,"新效支路与G15沈海高速出口交叉口西南50米","购物;超市"
"黄商超市(新庙三路店)",31.062325,121.2923,"新庙三路870号","购物;超市"
"帅帅超市",31.063207,121.292352,"新庙三路904号","购物;超市"
"喜乐多便利店",31.053771,121.304333,"上海市松江区民益路201号附近","购物;便利店"
"遇友超市",31.062689,121.292317,"新庙三路886号","购物;超市"
"快客便利店(no.5327)",31.045034,121.296394,"民强路1535号附近","购物;便利店"
"罗森(松东区来沪人员就业服务中心东南)",31.053809,121.304239,"漕河路(松东区来沪人员就业服务中心东南)","购物;便利店"
"金湖超市",31.044527,121.304985,"茸华路1237附近","购物"
"民森食品百货超市",31.054026,121.304097,"松江区民益路201号","购物;便利店"
"龙工便利店",31.063306,121.292352,"新庙三路869号附近","购物;便利店"
"民益商店",31.057081,121.308776,"民益路6号-1号","购物;便利店"
"鸿安便利店",31.058231,121.310811,"民益路与围河路交叉口","购物;便利店"
"易捷便利店(民益路)",31.04787,121.293567,"新桥镇民益路1028号","购物;便利店"
"周丽杂货店",31.058958,121.312466,"新镇街89号附近","购物;便利店"
"美惠全连锁超市(NO.177)",31.064533,121.292508,"新庙三路976识别","购物;超市"
"新世纪华联超市(卖新公路1699弄)",31.068057,121.306916,"上海市松江区卖新公路1699弄10号","购物;超市"
"永辉平价百货",31.066599,121.305612,"新蟠路189号附近","购物;超市"
"康吉超市",31.070241,121.297769,"马汤村杨浜258号","购物;超市"
"大江超市",31.063678,121.292402,"松江区新庙三路930号","购物;超市"
"马明超市",31.078584,121.297356,"上海市松江区马明路25号","购物;超市"
"国其超市",31.071121,121.300974,"马汤村杨浜131号","购物;超市"
"立兵百货店",31.06465,121.292512,"新庙三路966识别","购物;超市"
"易捷便利店(新站路)",31.064733,121.312872,"九新公路3100识别","购物;便利店"
"青青烟酒商行",31.063949,121.293537,"新桥镇新庙三路980弄32-11","美食;小吃快餐店"
"竹旭购物中心",31.064004,121.293308,"新庙三路980弄33-8号","购物"
"世纪联华",31.100676,121.301635,"高技路43号","购物;超市"
"世纪华联(高技路店)",31.100549,121.301569,"上海市松江区高技路43号","购物;超市"
"万家超市(泗泾店)",31.106577,121.290964,"泗砖公路105号","购物;超市"
"世纪华联(江河路店)",31.10767,121.298886,"双施路369号","购物;超市"
"好又多超市",31.107601,121.301115,"双施路418号","购物;超市"
"福派面料超市",31.112995,121.310113,"西飞路拉夏贝尔附近","购物;超市"
"世纪华联超市(永强路)",31.097842,121.308804,"永强路280号","购物;超市"
"好又多(长施路)",31.097009,121.312899,"上海市松江区长施公路2028号附近","购物;超市"
"美惠全生活购物连锁超市(NO.258)",31.108062,121.300608,"上海市松江区双施路409号","购物;超市"
"好又多超市",31.10699,121.291601,"江河路兴旺便利店旁","购物;超市"
"上海如海高技路店",31.109866,121.30025,"上海市松江区","购物;超市"
"江南超市",31.112456,121.290249,"泗砖路160号","购物;超市"
"兴旺便利店",31.10699,121.291601,"江河路与泗砖公路交叉口","购物;便利店"
"惠得隆超市(双施店)",31.107879,121.299951,"双施公路","购物;超市"
"旺旺超市",31.107936,121.302594,"上海杰姆斯电子材料有限公司附近","购物;超市"
"笑乐佳超市",31.107845,121.301911,"高技路上海天海受电弓制造有限公司附近","购物;超市"
"京海联合一百超市",31.100887,121.301587,"上海市松江区高技路51号","购物;超市"
"联谊超市(张施店)",31.100479,121.311995,"奇石东街028号","购物;超市"
"易捷便利店(莘砖公路店)",31.098444,121.311007,"泗泾镇(近莘砖公路)","购物;便利店"
"洞泾南张径烟糖便利店",31.088637,121.293726,"松江区长兴东路1332号","购物;便利店"
"洞泾镇松歆便利店",31.088815,121.296214,"长兴东路1286号","购物;便利店"
"100联合一百(NO.1187)",31.100887,121.301539,"泗泾镇高技路51号","购物"
"农工商粮油超市",31.088887,121.296861,"长兴东路1264号","购物"
"洁美超市(NO.068)",31.113474,121.29013,"泗砖公路126号","购物;超市"
"华联超市(叶家店)",31.122925,121.301275,"上海市松江区泗泾镇叶家村801号","购物;超市"
"华联超市(松铁店)",31.115423,121.290659,"上海市松江区泗砖公路99号a幢6号","购物;超市"
"美惠全连锁超市(叶家公路店)",31.123208,121.29619,"叶家公路咸肉菜饭骨头汤旁","购物;超市"
"家得福超市",31.116215,121.291812,"长施路程誉建材旁","购物;超市"
"易购超市",31.116658,121.293086,"沪松公路2517弄186号","购物;超市"
"好又多(泗泾兴亦便利店)",31.123629,121.293154,"叶家公路与沪松公路交叉口东","购物;超市"
"好又多(九干公路)",31.132126,121.299827,"上海市松江区九干路79~85号(单)","购物;超市"
"丽德超市",31.134882,121.294988,"九干路168号丽德创业园1幢E区101","购物;超市"
"全家乐超市",31.117545,121.300181,"长施公路470号附近","购物;超市"
"时代联华超市(海新店)",31.119844,121.294936,"泗泾镇沪松公路2517弄182、184号","购物;超市"
"联华超市(左鹏店)",31.114422,121.29221,"沪松公路2517弄88-92号","购物;超市"
"华联超市(勤富路店)",31.117589,121.311364,"上海市松江区勤富路503号","购物;超市"
"汇利超市",31.116593,121.311227,"九亭镇l龙高路勤富路金吴村537号","购物;超市"
"好佳多超市",31.116638,121.291936,"上海市松江区泗砖路1弄-222号","购物;超市"
"如海超市",31.136981,121.30945,"沪凇公路1991号","购物;超市"
"联合一百沪(NO.1388)",31.134932,121.31308,"九亭大街极限弯道西","购物;超市"
"华联超市(龙高店)",31.128671,121.313812,"上海市松江区龙高路815号","购物;超市"
"隆发超市",31.115537,121.31251,"易富路33号附近","购物;超市"
"第1零售连锁超市(NO.208)",31.117894,121.311613,"龙高路1280号","购物;超市"
"家家福超市(西飞路)",31.113861,121.310275,"西飞路8号(上海文亨装制品有限公司西北)","购物;超市"
"上客隆超市",31.127,121.289974,"泗陈公路333弄附近","购物;超市"
"福乐佳超市泗泾店",31.123044,121.29831,"叶家公路348号附近","购物;超市"
"畅购超市",31.127149,121.313662,"久富路651号","购物;超市"
"世纪联嘉",31.117589,121.311364,"上海市松江区勤富路503号","购物;超市"
"联都超市(大和别墅西南)",31.134578,121.305604,"沪松公路1838号1968号(大和别墅西南)","购物;超市"
"福乐佳超市(九干路店)",31.131929,121.301061,"九干公路与新微路交叉口西","购物;超市"
"金苹果超市",31.115452,121.312121,"易富路47号75号","购物;超市"
"联合一百方合超市沪(NO.1020)",31.120086,121.292479,"沪松公路2511弄704","购物;超市"
"阅美便利店",31.116334,121.291245,"泗砖路1弄87号","购物;便利店"
"快客便利店(no.6283)",31.122735,121.289731,"鼓浪路与沪松公路交叉口西侧","购物;便利店"
"喜乐多便利店",31.122285,121.291314,"沪松公路2511弄18号","购物;便利店"
"鑫德便利001",31.132,121.300573,"九干路67号","购物;便利店"
"好兄弟便利店",31.115689,121.311603,"易富路与龙高路交叉口西北50米","购物;便利店"
"快客便利店(no.03809)",31.116694,121.290755,"泗砖路1弄203～261号附近","购物;便利店"
"旺佳乐超市",31.117039,121.294125,"泗砖路1弄201室","购物;便利店"
"心怡百货",31.130647,121.305198,"九干路45弄36-37号","购物;便利店"
"旺角便利店",31.114962,121.294443,"泗泾钢材城中环98号","购物;便利店"
"耀洁百货(超市配送中心)",31.13078,121.302543,"沪松公路2101号国际食品城2-107","购物"
"永阳食品经营部",31.129273,121.305091,"北泖泾路","购物"
"德应便利店",31.122728,121.289642,"鼓浪路51","购物;便利店"
"畅亦商行",31.130747,121.306148,"北泖泾路与望东北路交叉口西150米","购物"
"辉铭副食品经营部",31.123626,121.294748,"叶家公路912号附近","购物"
"上海新颖食品超市配货中心",31.129945,121.304118,"沪松公路2119号附近","购物"
"裕汇食品经营部",31.129364,121.304862,"望东北路南50米","购物"
"惠密食品经营部",31.130151,121.305384,"沪松公路2101号-1区-88号","购物"
"春宇贸易商行",31.130736,121.302475,"沪松公路2103号附近","购物"
"健达商行",31.129465,121.303676,"沪松公路2131号附近","购物"
"缘园水果大卖场",31.119857,121.291961,"沪松公路2517弄46～48号","购物;超市"
"兴旺百货",31.131881,121.313633,"上海市松江区龙高路306号","购物"
"农夫果庄(泗泾店)",31.11985,121.29214,"沪松公路2517弄60号","购物;超市"
"鲜又多水果超市",31.116608,121.291444,"泗砖路1弄155号","购物;超市"
"如海超市(涞寅路店)",31.148671,121.313266,"涞寅路1039号","购物;超市"
"华联超市(亭知店)",31.152188,121.312305,"上海市松江区九亭镇亭知路700~706号(双）","购物;超市"
"联华超市(寅青路店)",31.147368,121.292777,"上海市松江区九亭镇高科技园区寅青路483识别~485识别","购物;超市"
"好又多超市九泾路店",31.146567,121.299307,"上海市松江区九泾路718号","购物;超市"
"世纪华联超市(九谊路店)",31.147202,121.305981,"涞寅路1600号","购物;超市"
"华联超市(NO.2597店)",31.152895,121.305481,"上海市松江区九亭镇涞坊路1184~1186号","购物;超市"
"华莲超市(维平便利店)",31.143809,121.307402,"上海市松江区九徐路145号","购物;超市"
"好又多超市",31.147777,121.292219,"上海市松江区寅青路501识别","购物;超市"
"佳家超市",31.151205,121.311289,"亭知路793号","购物;超市"
"向阳购物超市",31.143997,121.307312,"九徐路与涞寅路交叉口南侧","购物;超市"
"源赋杂货店",31.146235,121.294231,"九亭镇寅青路425号","购物;超市"
"裔花便利店",31.149165,121.313604,"涞寅路1072号","购物;便利店"
"彩巍超市",31.139249,121.295372,"上海市松江区","购物"
"远发烟草便利店",31.152373,121.312744,"松江区亭知路694号","购物;便利店"
"青寅便利店",31.146725,121.293613,"寅青路449识别","购物;便利店"
"南国便利",31.156551,121.293544,"坊东路241号","购物;便利店"
